{
  "timestamp": "2025-11-30T17:21:08.828494Z",
  "source": "Open-Meteo",
  "forecast_window_hours": 6,
  "features_evaluated": 9960,
  "alerts": [
    {
      "id": "2",
      "country": "",
      "name": "les Escaldes",
      "latitude": 42.50729,
      "longitude": 1.53414,
      "base_risk": 8.5,
      "rain_6h_mm": 0.0,
      "humidity_avg": 50.8,
      "soil_moisture_avg": 0.0,
      "rain_mult": 0.0,
      "soil_mult": 0.95,
      "humidity_mult": 1.025,
      "raw_dynamic_score": 0.0,
      "dynamic_level": "None"
    },
    {
      "id": "3",
      "country": "",
      "name": "Andorra la Vella",
      "latitude": 42.50779,
      "longitude": 1.52109,
      "base_risk": 8.5,
      "rain_6h_mm": 0.0,
      "humidity_avg": 49.5,
      "soil_moisture_avg": 0.0,
      "rain_mult": 0.0,
      "soil_mult": 0.95,
      "humidity_mult": 1.025,
      "raw_dynamic_score": 0.0,
      "dynamic_level": "None"
    },
    {
      "id": "4",
      "country": "",
      "name": "Warīsān",
      "latitude": 25.16744,
      "longitude": 55.40708,
      "base_risk": 8.5,
      "rain_6h_mm": 0.0,
      "humidity_avg": 72.7,
      "soil_moisture_avg": 0.0,
      "rain_mult": 0.0,
      "soil_mult": 0.95,
      "humidity_mult": 1.036,
      "raw_dynamic_score": 0.0,
      "dynamic_level": "None"
    },
    {
      "id": "5",
      "country": "",
      "name": "Umm Suqaym",
      "latitude": 25.15491,
      "longitude": 55.21015,
      "base_risk": 8.5,
      "rain_6h_mm": 0.0,
      "humidity_avg": 75.2,
      "soil_moisture_avg": 0.0,
      "rain_mult": 0.0,
      "soil_mult": 0.95,
      "humidity_mult": 1.038,
      "raw_dynamic_score": 0.0,
      "dynamic_level": "None"
    },
    {
      "id": "6",
      "country": "",
      "name": "Umm Al Quwain City",
      "latitude": 25.56473,
      "longitude": 55.55517,
      "base_risk": 8.5,
      "rain_6h_mm": 0.0,
      "humidity_avg": 59.0,
      "soil_moisture_avg": 0.0,
      "rain_mult": 0.0,
      "soil_mult": 0.95,
      "humidity_mult": 1.03,
      "raw_dynamic_score": 0.0,
      "dynamic_level": "None"
    },
    {
      "id": "7",
      "country": "",
      "name": "Ţarīf Kalbā",
      "latitude": 25.0695,
      "longitude": 56.33115,
      "base_risk": 8.5,
      "rain_6h_mm": 0.0,
      "humidity_avg": 61.7,
      "soil_moisture_avg": 0.0,
      "rain_mult": 0.0,
      "soil_mult": 0.95,
      "humidity_mult": 1.031,
      "raw_dynamic_score": 0.0,
      "dynamic_level": "None"
    },
    {
      "id": "8",
      "country": "",
      "name": "Ar Rāshidīyah",
      "latitude": 25.22499,
      "longitude": 55.38947,
      "base_risk": 8.5,
      "rain_6h_mm": 0.0,
      "humidity_avg": 67.3,
      "soil_moisture_avg": 0.0,
      "rain_mult": 0.0,
      "soil_mult": 0.95,
      "humidity_mult": 1.034,
      "raw_dynamic_score": 0.0,
      "dynamic_level": "None"
    },
    {
      "id": "9",
      "country": "",
      "name": "Ras Al Khaimah",
      "latitude": 25.78953,
      "longitude": 55.9432,
      "base_risk": 8.5,
      "rain_6h_mm": 0.0,
      "humidity_avg": 61.7,
      "soil_moisture_avg": 0.0,
      "rain_mult": 0.0,
      "soil_mult": 0.95,
      "humidity_mult": 1.031,
      "raw_dynamic_score": 0.0,
      "dynamic_level": "None"
    },
    {
      "id": "10",
      "country": "",
      "name": "Zayed City",
      "latitude": 23.65416,
      "longitude": 53.70522,
      "base_risk": 8.5,
      "rain_6h_mm": 0.0,
      "humidity_avg": 61.7,
      "soil_moisture_avg": 0.0,
      "rain_mult": 0.0,
      "soil_mult": 0.95,
      "humidity_mult": 1.031,
      "raw_dynamic_score": 0.0,
      "dynamic_level": "None"
    },
    {
      "id": "11",
      "country": "",
      "name": "Khawr Fakkān",
      "latitude": 25.33132,
      "longitude": 56.34199,
      "base_risk": 8.5,
      "rain_6h_mm": 0.0,
      "humidity_avg": 68.3,
      "soil_moisture_avg": 0.0,
      "rain_mult": 0.0,
      "soil_mult": 0.95,
      "humidity_mult": 1.034,
      "raw_dynamic_score": 0.0,
      "dynamic_level": "None"
    },
    {
      "id": "12",
      "country": "",
      "name": "Kalbā",
      "latitude": 25.0513,
      "longitude": 56.35422,
      "base_risk": 8.5,
      "rain_6h_mm": 0.0,
      "humidity_avg": 60.8,
      "soil_moisture_avg": 0.0,
      "rain_mult": 0.0,
      "soil_mult": 0.95,
      "humidity_mult": 1.03,
      "raw_dynamic_score": 0.0,
      "dynamic_level": "None"
    },
    {
      "id": "13",
      "country": "",
      "name": "Jumayrā",
      "latitude": 25.20795,
      "longitude": 55.24969,
      "base_risk": 8.5,
      "rain_6h_mm": 0.0,
      "humidity_avg": 65.8,
      "soil_moisture_avg": 0.0,
      "rain_mult": 0.0,
      "soil_mult": 0.95,
      "humidity_mult": 1.033,
      "raw_dynamic_score": 0.0,
      "dynamic_level": "None"
    },
    {
      "id": "14",
      "country": "",
      "name": "Dubai",
      "latitude": 25.07725,
      "longitude": 55.30927,
      "base_risk": 8.5,
      "rain_6h_mm": 0.0,
      "humidity_avg": 75.2,
      "soil_moisture_avg": 0.0,
      "rain_mult": 0.0,
      "soil_mult": 0.95,
      "humidity_mult": 1.038,
      "raw_dynamic_score": 0.0,
      "dynamic_level": "None"
    },
    {
      "id": "15",
      "country": "",
      "name": "Dibba Al-Fujairah",
      "latitude": 25.59246,
      "longitude": 56.26176,
      "base_risk": 8.5,
      "rain_6h_mm": 0.0,
      "humidity_avg": 68.3,
      "soil_moisture_avg": 0.0,
      "rain_mult": 0.0,
      "soil_mult": 0.95,
      "humidity_mult": 1.034,
      "raw_dynamic_score": 0.0,
      "dynamic_level": "None"
    },
    {
      "id": "16",
      "country": "",
      "name": "Dibba Al-Hisn",
      "latitude": 25.61955,
      "longitude": 56.27291,
      "base_risk": 8.5,
      "rain_6h_mm": 0.0,
      "humidity_avg": 68.3,
      "soil_moisture_avg": 0.0,
      "rain_mult": 0.0,
      "soil_mult": 0.95,
      "humidity_mult": 1.034,
      "raw_dynamic_score": 0.0,
      "dynamic_level": "None"
    },
    {
      "id": "17",
      "country": "",
      "name": "Dayrah",
      "latitude": 25.27143,
      "longitude": 55.30207,
      "base_risk": 8.5,
      "rain_6h_mm": 0.0,
      "humidity_avg": 65.8,
      "soil_moisture_avg": 0.0,
      "rain_mult": 0.0,
      "soil_mult": 0.95,
      "humidity_mult": 1.033,
      "raw_dynamic_score": 0.0,
      "dynamic_level": "None"
    },
    {
      "id": "18",
      "country": "",
      "name": "Sharjah",
      "latitude": 25.3342,
      "longitude": 55.41221,
      "base_risk": 8.5,
      "rain_6h_mm": 0.0,
      "humidity_avg": 67.3,
      "soil_moisture_avg": 0.0,
      "rain_mult": 0.0,
      "soil_mult": 0.95,
      "humidity_mult": 1.034,
      "raw_dynamic_score": 0.0,
      "dynamic_level": "None"
    },
    {
      "id": "19",
      "country": "",
      "name": "Ar Ruways",
      "latitude": 24.11028,
      "longitude": 52.73056,
      "base_risk": 8.5,
      "rain_6h_mm": 0.0,
      "humidity_avg": 67.3,
      "soil_moisture_avg": 0.0,
      "rain_mult": 0.0,
      "soil_mult": 0.95,
      "humidity_mult": 1.034,
      "raw_dynamic_score": 0.0,
      "dynamic_level": "None"
    },
    {
      "id": "20",
      "country": "",
      "name": "Ḩattā",
      "latitude": 24.80073,
      "longitude": 56.12726,
      "base_risk": 8.5,
      "rain_6h_mm": 0.0,
      "humidity_avg": 56.7,
      "soil_moisture_avg": 0.0,
      "rain_mult": 0.0,
      "soil_mult": 0.95,
      "humidity_mult": 1.028,
      "raw_dynamic_score": 0.0,
      "dynamic_level": "None"
    },
    {
      "id": "21",
      "country": "",
      "name": "Fujairah",
      "latitude": 25.11641,
      "longitude": 56.34141,
      "base_risk": 8.5,
      "rain_6h_mm": 0.0,
      "humidity_avg": 61.7,
      "soil_moisture_avg": 0.0,
      "rain_mult": 0.0,
      "soil_mult": 0.95,
      "humidity_mult": 1.031,
      "raw_dynamic_score": 0.0,
      "dynamic_level": "None"
    },
    {
      "id": "22",
      "country": "",
      "name": "Al Ain City",
      "latitude": 24.19167,
      "longitude": 55.76056,
      "base_risk": 8.5,
      "rain_6h_mm": 0.0,
      "humidity_avg": 49.3,
      "soil_moisture_avg": 0.0,
      "rain_mult": 0.0,
      "soil_mult": 0.95,
      "humidity_mult": 1.025,
      "raw_dynamic_score": 0.0,
      "dynamic_level": "None"
    },
    {
      "id": "23",
      "country": "",
      "name": "Ajman",
      "latitude": 25.40177,
      "longitude": 55.47878,
      "base_risk": 8.5,
      "rain_6h_mm": 0.0,
      "humidity_avg": 67.3,
      "soil_moisture_avg": 0.0,
      "rain_mult": 0.0,
      "soil_mult": 0.95,
      "humidity_mult": 1.034,
      "raw_dynamic_score": 0.0,
      "dynamic_level": "None"
    },
    {
      "id": "24",
      "country": "",
      "name": "Adh Dhayd",
      "latitude": 25.28812,
      "longitude": 55.88157,
      "base_risk": 8.5,
      "rain_6h_mm": 0.0,
      "humidity_avg": 65.3,
      "soil_moisture_avg": 0.0,
      "rain_mult": 0.0,
      "soil_mult": 0.95,
      "humidity_mult": 1.033,
      "raw_dynamic_score": 0.0,
      "dynamic_level": "None"
    },
    {
      "id": "25",
      "country": "",
      "name": "Abu Dhabi",
      "latitude": 24.45118,
      "longitude": 54.39696,
      "base_risk": 8.5,
      "rain_6h_mm": 0.0,
      "humidity_avg": 70.3,
      "soil_moisture_avg": 0.0,
      "rain_mult": 0.0,
      "soil_mult": 0.95,
      "humidity_mult": 1.035,
      "raw_dynamic_score": 0.0,
      "dynamic_level": "None"
    },
    {
      "id": "26",
      "country": "",
      "name": "Abū Hayl",
      "latitude": 25.28413,
      "longitude": 55.33153,
      "base_risk": 8.5,
      "rain_6h_mm": 0.0,
      "humidity_avg": 67.3,
      "soil_moisture_avg": 0.0,
      "rain_mult": 0.0,
      "soil_mult": 0.95,
      "humidity_mult": 1.034,
      "raw_dynamic_score": 0.0,
      "dynamic_level": "None"
    },
    {
      "id": "27",
      "country": "",
      "name": "As Saţwah",
      "latitude": 25.22192,
      "longitude": 55.27459,
      "base_risk": 8.5,
      "rain_6h_mm": 0.0,
      "humidity_avg": 65.8,
      "soil_moisture_avg": 0.0,
      "rain_mult": 0.0,
      "soil_mult": 0.95,
      "humidity_mult": 1.033,
      "raw_dynamic_score": 0.0,
      "dynamic_level": "None"
    },
    {
      "id": "28",
      "country": "",
      "name": "Al Ḩamīdīyah",
      "latitude": 25.40001,
      "longitude": 55.52925,
      "base_risk": 8.5,
      "rain_6h_mm": 0.0,
      "humidity_avg": 59.0,
      "soil_moisture_avg": 0.0,
      "rain_mult": 0.0,
      "soil_mult": 0.95,
      "humidity_mult": 1.03,
      "raw_dynamic_score": 0.0,
      "dynamic_level": "None"
    },
    {
      "id": "29",
      "country": "",
      "name": "Al Waheda",
      "latitude": 25.29173,
      "longitude": 55.33822,
      "base_risk": 8.5,
      "rain_6h_mm": 0.0,
      "humidity_avg": 67.3,
      "soil_moisture_avg": 0.0,
      "rain_mult": 0.0,
      "soil_mult": 0.95,
      "humidity_mult": 1.034,
      "raw_dynamic_score": 0.0,
      "dynamic_level": "None"
    },
    {
      "id": "30",
      "country": "",
      "name": "Al Karama",
      "latitude": 25.24004,
      "longitude": 55.30106,
      "base_risk": 8.5,
      "rain_6h_mm": 0.0,
      "humidity_avg": 65.8,
      "soil_moisture_avg": 0.0,
      "rain_mult": 0.0,
      "soil_mult": 0.95,
      "humidity_mult": 1.033,
      "raw_dynamic_score": 0.0,
      "dynamic_level": "None"
    },
    {
      "id": "31",
      "country": "",
      "name": "The Palm Jumeirah",
      "latitude": 25.11607,
      "longitude": 55.13506,
      "base_risk": 8.5,
      "rain_6h_mm": 0.0,
      "humidity_avg": 65.8,
      "soil_moisture_avg": 0.0,
      "rain_mult": 0.0,
      "soil_mult": 0.95,
      "humidity_mult": 1.033,
      "raw_dynamic_score": 0.0,
      "dynamic_level": "None"
    },
    {
      "id": "32",
      "country": "",
      "name": "Bur Dubai",
      "latitude": 25.26038,
      "longitude": 55.29891,
      "base_risk": 8.5,
      "rain_6h_mm": 0.0,
      "humidity_avg": 72.7,
      "soil_moisture_avg": 0.0,
      "rain_mult": 0.0,
      "soil_mult": 0.95,
      "humidity_mult": 1.036,
      "raw_dynamic_score": 0.0,
      "dynamic_level": "None"
    },
    {
      "id": "33",
      "country": "",
      "name": "Khalifah A City",
      "latitude": 24.42588,
      "longitude": 54.605,
      "base_risk": 8.5,
      "rain_6h_mm": 0.0,
      "humidity_avg": 69.7,
      "soil_moisture_avg": 0.0,
      "rain_mult": 0.0,
      "soil_mult": 0.95,
      "humidity_mult": 1.035,
      "raw_dynamic_score": 0.0,
      "dynamic_level": "None"
    },
    {
      "id": "34",
      "country": "",
      "name": "Mirdif",
      "latitude": 25.22443,
      "longitude": 55.41412,
      "base_risk": 8.5,
      "rain_6h_mm": 0.0,
      "humidity_avg": 67.3,
      "soil_moisture_avg": 0.0,
      "rain_mult": 0.0,
      "soil_mult": 0.95,
      "humidity_mult": 1.034,
      "raw_dynamic_score": 0.0,
      "dynamic_level": "None"
    },
    {
      "id": "35",
      "country": "",
      "name": "Hawr al ‘Anz",
      "latitude": 25.27744,
      "longitude": 55.33675,
      "base_risk": 8.5,
      "rain_6h_mm": 0.0,
      "humidity_avg": 67.3,
      "soil_moisture_avg": 0.0,
      "rain_mult": 0.0,
      "soil_mult": 0.95,
      "humidity_mult": 1.034,
      "raw_dynamic_score": 0.0,
      "dynamic_level": "None"
    },
    {
      "id": "36",
      "country": "",
      "name": "Mankhūl",
      "latitude": 25.24612,
      "longitude": 55.29222,
      "base_risk": 8.5,
      "rain_6h_mm": 0.0,
      "humidity_avg": 65.8,
      "soil_moisture_avg": 0.0,
      "rain_mult": 0.0,
      "soil_mult": 0.95,
      "humidity_mult": 1.033,
      "raw_dynamic_score": 0.0,
      "dynamic_level": "None"
    },
    {
      "id": "37",
      "country": "",
      "name": "Nāyf",
      "latitude": 25.27139,
      "longitude": 55.30323,
      "base_risk": 8.5,
      "rain_6h_mm": 0.0,
      "humidity_avg": 65.8,
      "soil_moisture_avg": 0.0,
      "rain_mult": 0.0,
      "soil_mult": 0.95,
      "humidity_mult": 1.033,
      "raw_dynamic_score": 0.0,
      "dynamic_level": "None"
    },
    {
      "id": "38",
      "country": "",
      "name": "Al Murar al Qadīm",
      "latitude": 25.27576,
      "longitude": 55.30738,
      "base_risk": 8.5,
      "rain_6h_mm": 0.0,
      "humidity_avg": 65.8,
      "soil_moisture_avg": 0.0,
      "rain_mult": 0.0,
      "soil_mult": 0.95,
      "humidity_mult": 1.033,
      "raw_dynamic_score": 0.0,
      "dynamic_level": "None"
    },
    {
      "id": "39",
      "country": "",
      "name": "Al Warqaa",
      "latitude": 25.19272,
      "longitude": 55.42013,
      "base_risk": 8.5,
      "rain_6h_mm": 0.0,
      "humidity_avg": 67.3,
      "soil_moisture_avg": 0.0,
      "rain_mult": 0.0,
      "soil_mult": 0.95,
      "humidity_mult": 1.034,
      "raw_dynamic_score": 0.0,
      "dynamic_level": "None"
    },
    {
      "id": "40",
      "country": "",
      "name": "International City",
      "latitude": 25.16383,
      "longitude": 55.40987,
      "base_risk": 8.5,
      "rain_6h_mm": 0.0,
      "humidity_avg": 72.7,
      "soil_moisture_avg": 0.0,
      "rain_mult": 0.0,
      "soil_mult": 0.95,
      "humidity_mult": 1.036,
      "raw_dynamic_score": 0.0,
      "dynamic_level": "None"
    },
    {
      "id": "41",
      "country": "",
      "name": "Dubai Marina",
      "latitude": 25.08525,
      "longitude": 55.14646,
      "base_risk": 8.5,
      "rain_6h_mm": 0.0,
      "humidity_avg": 65.8,
      "soil_moisture_avg": 0.0,
      "rain_mult": 0.0,
      "soil_mult": 0.95,
      "humidity_mult": 1.033,
      "raw_dynamic_score": 0.0,
      "dynamic_level": "None"
    },
    {
      "id": "42",
      "country": "",
      "name": "Dubai Internet City",
      "latitude": 25.09538,
      "longitude": 55.16171,
      "base_risk": 8.5,
      "rain_6h_mm": 0.0,
      "humidity_avg": 65.8,
      "soil_moisture_avg": 0.0,
      "rain_mult": 0.0,
      "soil_mult": 0.95,
      "humidity_mult": 1.033,
      "raw_dynamic_score": 0.0,
      "dynamic_level": "None"
    },
    {
      "id": "43",
      "country": "",
      "name": "Al Safa",
      "latitude": 25.17047,
      "longitude": 55.23336,
      "base_risk": 8.5,
      "rain_6h_mm": 0.0,
      "humidity_avg": 75.2,
      "soil_moisture_avg": 0.0,
      "rain_mult": 0.0,
      "soil_mult": 0.95,
      "humidity_mult": 1.038,
      "raw_dynamic_score": 0.0,
      "dynamic_level": "None"
    },
    {
      "id": "44",
      "country": "",
      "name": "Ar Rumaylah",
      "latitude": 25.40338,
      "longitude": 55.4334,
      "base_risk": 8.5,
      "rain_6h_mm": 0.0,
      "humidity_avg": 67.3,
      "soil_moisture_avg": 0.0,
      "rain_mult": 0.0,
      "soil_mult": 0.95,
      "humidity_mult": 1.034,
      "raw_dynamic_score": 0.0,
      "dynamic_level": "None"
    },
    {
      "id": "45",
      "country": "",
      "name": "Al Jurf",
      "latitude": 25.41814,
      "longitude": 55.50791,
      "base_risk": 8.5,
      "rain_6h_mm": 0.0,
      "humidity_avg": 59.0,
      "soil_moisture_avg": 0.0,
      "rain_mult": 0.0,
      "soil_mult": 0.95,
      "humidity_mult": 1.03,
      "raw_dynamic_score": 0.0,
      "dynamic_level": "None"
    },
    {
      "id": "46",
      "country": "",
      "name": "Al Majaz",
      "latitude": 25.32354,
      "longitude": 55.38774,
      "base_risk": 8.5,
      "rain_6h_mm": 0.0,
      "humidity_avg": 67.3,
      "soil_moisture_avg": 0.0,
      "rain_mult": 0.0,
      "soil_mult": 0.95,
      "humidity_mult": 1.034,
      "raw_dynamic_score": 0.0,
      "dynamic_level": "None"
    },
    {
      "id": "47",
      "country": "",
      "name": "Dubai Festival City",
      "latitude": 25.22177,
      "longitude": 55.35733,
      "base_risk": 8.5,
      "rain_6h_mm": 0.0,
      "humidity_avg": 67.3,
      "soil_moisture_avg": 0.0,
      "rain_mult": 0.0,
      "soil_mult": 0.95,
      "humidity_mult": 1.034,
      "raw_dynamic_score": 0.0,
      "dynamic_level": "None"
    },
    {
      "id": "48",
      "country": "",
      "name": "Dubai International Financial Centre",
      "latitude": 25.2106,
      "longitude": 55.27787,
      "base_risk": 8.5,
      "rain_6h_mm": 0.0,
      "humidity_avg": 65.8,
      "soil_moisture_avg": 0.0,
      "rain_mult": 0.0,
      "soil_mult": 0.95,
      "humidity_mult": 1.033,
      "raw_dynamic_score": 0.0,
      "dynamic_level": "None"
    },
    {
      "id": "49",
      "country": "",
      "name": "Dubai Investments Park",
      "latitude": 25.00827,
      "longitude": 55.15682,
      "base_risk": 8.5,
      "rain_6h_mm": 0.0,
      "humidity_avg": 65.8,
      "soil_moisture_avg": 0.0,
      "rain_mult": 0.0,
      "soil_mult": 0.95,
      "humidity_mult": 1.033,
      "raw_dynamic_score": 0.0,
      "dynamic_level": "None"
    },
    {
      "id": "50",
      "country": "",
      "name": "Jebel Ali",
      "latitude": 25.00255,
      "longitude": 55.10811,
      "base_risk": 8.5,
      "rain_6h_mm": 0.0,
      "humidity_avg": 65.8,
      "soil_moisture_avg": 0.0,
      "rain_mult": 0.0,
      "soil_mult": 0.95,
      "humidity_mult": 1.033,
      "raw_dynamic_score": 0.0,
      "dynamic_level": "None"
    },
    {
      "id": "51",
      "country": "",
      "name": "Bani Yas City",
      "latitude": 24.30978,
      "longitude": 54.62944,
      "base_risk": 8.5,
      "rain_6h_mm": 0.0,
      "humidity_avg": 70.5,
      "soil_moisture_avg": 0.0,
      "rain_mult": 0.0,
      "soil_mult": 0.95,
      "humidity_mult": 1.035,
      "raw_dynamic_score": 0.0,
      "dynamic_level": "None"
    },
    {
      "id": "52",
      "country": "",
      "name": "Musaffah",
      "latitude": 24.35893,
      "longitude": 54.48267,
      "base_risk": 8.5,
      "rain_6h_mm": 0.0,
      "humidity_avg": 70.3,
      "soil_moisture_avg": 0.0,
      "rain_mult": 0.0,
      "soil_mult": 0.95,
      "humidity_mult": 1.035,
      "raw_dynamic_score": 0.0,
      "dynamic_level": "None"
    },
    {
      "id": "53",
      "country": "",
      "name": "Al Shamkhah City",
      "latitude": 24.39268,
      "longitude": 54.70779,
      "base_risk": 8.5,
      "rain_6h_mm": 0.0,
      "humidity_avg": 70.8,
      "soil_moisture_avg": 0.0,
      "rain_mult": 0.0,
      "soil_mult": 0.95,
      "humidity_mult": 1.035,
      "raw_dynamic_score": 0.0,
      "dynamic_level": "None"
    },
    {
      "id": "54",
      "country": "",
      "name": "Reef Al Fujairah City",
      "latitude": 25.14479,
      "longitude": 56.24764,
      "base_risk": 8.5,
      "rain_6h_mm": 0.0,
      "humidity_avg": 61.7,
      "soil_moisture_avg": 0.0,
      "rain_mult": 0.0,
      "soil_mult": 0.95,
      "humidity_mult": 1.031,
      "raw_dynamic_score": 0.0,
      "dynamic_level": "None"
    },
    {
      "id": "55",
      "country": "",
      "name": "Al Bada'a",
      "latitude": 25.22462,
      "longitude": 55.26888,
      "base_risk": 8.5,
      "rain_6h_mm": 0.0,
      "humidity_avg": 65.8,
      "soil_moisture_avg": 0.0,
      "rain_mult": 0.0,
      "soil_mult": 0.95,
      "humidity_mult": 1.033,
      "raw_dynamic_score": 0.0,
      "dynamic_level": "None"
    },
    {
      "id": "56",
      "country": "",
      "name": "Al Muteena",
      "latitude": 25.27375,
      "longitude": 55.32265,
      "base_risk": 8.5,
      "rain_6h_mm": 0.0,
      "humidity_avg": 67.3,
      "soil_moisture_avg": 0.0,
      "rain_mult": 0.0,
      "soil_mult": 0.95,
      "humidity_mult": 1.034,
      "raw_dynamic_score": 0.0,
      "dynamic_level": "None"
    },
    {
      "id": "57",
      "country": "",
      "name": "Al Mizhar First",
      "latitude": 25.24805,
      "longitude": 55.44128,
      "base_risk": 8.5,
      "rain_6h_mm": 0.0,
      "humidity_avg": 73.2,
      "soil_moisture_avg": 0.0,
      "rain_mult": 0.0,
      "soil_mult": 0.95,
      "humidity_mult": 1.037,
      "raw_dynamic_score": 0.0,
      "dynamic_level": "None"
    },
    {
      "id": "58",
      "country": "",
      "name": "Dubai Silicon Oasis",
      "latitude": 25.11985,
      "longitude": 55.38718,
      "base_risk": 8.5,
      "rain_6h_mm": 0.0,
      "humidity_avg": 72.7,
      "soil_moisture_avg": 0.0,
      "rain_mult": 0.0,
      "soil_mult": 0.95,
      "humidity_mult": 1.036,
      "raw_dynamic_score": 0.0,
      "dynamic_level": "None"
    },
    {
      "id": "59",
      "country": "",
      "name": "Al Furjan",
      "latitude": 25.02651,
      "longitude": 55.14565,
      "base_risk": 8.5,
      "rain_6h_mm": 0.0,
      "humidity_avg": 65.8,
      "soil_moisture_avg": 0.0,
      "rain_mult": 0.0,
      "soil_mult": 0.95,
      "humidity_mult": 1.033,
      "raw_dynamic_score": 0.0,
      "dynamic_level": "None"
    },
    {
      "id": "60",
      "country": "",
      "name": "Business Bay",
      "latitude": 25.18544,
      "longitude": 55.26969,
      "base_risk": 8.5,
      "rain_6h_mm": 0.0,
      "humidity_avg": 75.2,
      "soil_moisture_avg": 0.0,
      "rain_mult": 0.0,
      "soil_mult": 0.95,
      "humidity_mult": 1.038,
      "raw_dynamic_score": 0.0,
      "dynamic_level": "None"
    },
    {
      "id": "61",
      "country": "",
      "name": "Al Qusais 1",
      "latitude": 25.27925,
      "longitude": 55.36995,
      "base_risk": 8.5,
      "rain_6h_mm": 0.0,
      "humidity_avg": 67.3,
      "soil_moisture_avg": 0.0,
      "rain_mult": 0.0,
      "soil_mult": 0.95,
      "humidity_mult": 1.034,
      "raw_dynamic_score": 0.0,
      "dynamic_level": "None"
    },
    {
      "id": "62",
      "country": "",
      "name": "Halwan",
      "latitude": 25.34586,
      "longitude": 55.42165,
      "base_risk": 8.5,
      "rain_6h_mm": 0.0,
      "humidity_avg": 59.0,
      "soil_moisture_avg": 0.0,
      "rain_mult": 0.0,
      "soil_mult": 0.95,
      "humidity_mult": 1.03,
      "raw_dynamic_score": 0.0,
      "dynamic_level": "None"
    },
    {
      "id": "63",
      "country": "",
      "name": "Al Sajaah",
      "latitude": 25.31532,
      "longitude": 55.63211,
      "base_risk": 8.5,
      "rain_6h_mm": 0.0,
      "humidity_avg": 70.3,
      "soil_moisture_avg": 0.0,
      "rain_mult": 0.0,
      "soil_mult": 0.95,
      "humidity_mult": 1.035,
      "raw_dynamic_score": 0.0,
      "dynamic_level": "None"
    },
    {
      "id": "64",
      "country": "",
      "name": "Lahbab",
      "latitude": 25.03763,
      "longitude": 55.59135,
      "base_risk": 8.5,
      "rain_6h_mm": 0.0,
      "humidity_avg": 64.3,
      "soil_moisture_avg": 0.0,
      "rain_mult": 0.0,
      "soil_mult": 0.95,
      "humidity_mult": 1.032,
      "raw_dynamic_score": 0.0,
      "dynamic_level": "None"
    },
    {
      "id": "65",
      "country": "",
      "name": "Mohammed Bin Zayed City",
      "latitude": 24.34794,
      "longitude": 54.55368,
      "base_risk": 8.5,
      "rain_6h_mm": 0.0,
      "humidity_avg": 70.3,
      "soil_moisture_avg": 0.0,
      "rain_mult": 0.0,
      "soil_mult": 0.95,
      "humidity_mult": 1.035,
      "raw_dynamic_score": 0.0,
      "dynamic_level": "None"
    },
    {
      "id": "66",
      "country": "",
      "name": "Zaranj",
      "latitude": 30.95962,
      "longitude": 61.86037,
      "base_risk": 8.5,
      "rain_6h_mm": 0.0,
      "humidity_avg": 19.3,
      "soil_moisture_avg": 0.0,
      "rain_mult": 0.0,
      "soil_mult": 0.95,
      "humidity_mult": 1.01,
      "raw_dynamic_score": 0.0,
      "dynamic_level": "None"
    },
    {
      "id": "67",
      "country": "",
      "name": "Bāzār-e Yakāwlang",
      "latitude": 34.73525,
      "longitude": 66.97379,
      "base_risk": 8.5,
      "rain_6h_mm": 0.0,
      "humidity_avg": 24.8,
      "soil_moisture_avg": 0.0,
      "rain_mult": 0.0,
      "soil_mult": 0.95,
      "humidity_mult": 1.012,
      "raw_dynamic_score": 0.0,
      "dynamic_level": "None"
    },
    {
      "id": "68",
      "country": "",
      "name": "Taloqan",
      "latitude": 36.73605,
      "longitude": 69.53451,
      "base_risk": 8.5,
      "rain_6h_mm": 0.0,
      "humidity_avg": 82.8,
      "soil_moisture_avg": 0.0,
      "rain_mult": 0.0,
      "soil_mult": 0.95,
      "humidity_mult": 1.041,
      "raw_dynamic_score": 0.0,
      "dynamic_level": "None"
    },
    {
      "id": "69",
      "country": "",
      "name": "Shīnḏanḏ",
      "latitude": 33.30294,
      "longitude": 62.1474,
      "base_risk": 8.5,
      "rain_6h_mm": 0.0,
      "humidity_avg": 47.7,
      "soil_moisture_avg": 0.0,
      "rain_mult": 0.0,
      "soil_mult": 0.95,
      "humidity_mult": 1.024,
      "raw_dynamic_score": 0.0,
      "dynamic_level": "None"
    },
    {
      "id": "70",
      "country": "",
      "name": "Shibirghān",
      "latitude": 36.66757,
      "longitude": 65.7529,
      "base_risk": 8.5,
      "rain_6h_mm": 0.0,
      "humidity_avg": 43.3,
      "soil_moisture_avg": 0.0,
      "rain_mult": 0.0,
      "soil_mult": 0.95,
      "humidity_mult": 1.022,
      "raw_dynamic_score": 0.0,
      "dynamic_level": "None"
    },
    {
      "id": "71",
      "country": "",
      "name": "Shahrak",
      "latitude": 34.10737,
      "longitude": 64.3052,
      "base_risk": 8.5,
      "rain_6h_mm": 0.0,
      "humidity_avg": 38.8,
      "soil_moisture_avg": 0.0,
      "rain_mult": 0.0,
      "soil_mult": 0.95,
      "humidity_mult": 1.019,
      "raw_dynamic_score": 0.0,
      "dynamic_level": "None"
    },
    {
      "id": "72",
      "country": "",
      "name": "Sar-e Pul",
      "latitude": 36.21544,
      "longitude": 65.93249,
      "base_risk": 8.5,
      "rain_6h_mm": 0.0,
      "humidity_avg": 56.5,
      "soil_moisture_avg": 0.0,
      "rain_mult": 0.0,
      "soil_mult": 0.95,
      "humidity_mult": 1.028,
      "raw_dynamic_score": 0.0,
      "dynamic_level": "None"
    },
    {
      "id": "73",
      "country": "",
      "name": "Sang-e Chārak",
      "latitude": 35.84972,
      "longitude": 66.43694,
      "base_risk": 8.5,
      "rain_6h_mm": 0.0,
      "humidity_avg": 20.7,
      "soil_moisture_avg": 0.0,
      "rain_mult": 0.0,
      "soil_mult": 0.95,
      "humidity_mult": 1.01,
      "raw_dynamic_score": 0.0,
      "dynamic_level": "None"
    },
    {
      "id": "74",
      "country": "",
      "name": "Aībak",
      "latitude": 36.26468,
      "longitude": 68.01551,
      "base_risk": 8.5,
      "rain_6h_mm": 0.0,
      "humidity_avg": 34.0,
      "soil_moisture_avg": 0.0,
      "rain_mult": 0.0,
      "soil_mult": 0.95,
      "humidity_mult": 1.017,
      "raw_dynamic_score": 0.0,
      "dynamic_level": "None"
    },
    {
      "id": "75",
      "country": "",
      "name": "Rustāq",
      "latitude": 37.12604,
      "longitude": 69.83045,
      "base_risk": 8.5,
      "rain_6h_mm": 0.0,
      "humidity_avg": 60.0,
      "soil_moisture_avg": 0.0,
      "rain_mult": 0.0,
      "soil_mult": 0.95,
      "humidity_mult": 1.03,
      "raw_dynamic_score": 0.0,
      "dynamic_level": "None"
    },
    {
      "id": "76",
      "country": "",
      "name": "Qarqīn",
      "latitude": 37.41853,
      "longitude": 66.04358,
      "base_risk": 8.5,
      "rain_6h_mm": 0.0,
      "humidity_avg": 48.8,
      "soil_moisture_avg": 0.0,
      "rain_mult": 0.0,
      "soil_mult": 0.95,
      "humidity_mult": 1.024,
      "raw_dynamic_score": 0.0,
      "dynamic_level": "None"
    },
    {
      "id": "77",
      "country": "",
      "name": "Qarāwul",
      "latitude": 37.21959,
      "longitude": 68.7802,
      "base_risk": 8.5,
      "rain_6h_mm": 0.0,
      "humidity_avg": 75.7,
      "soil_moisture_avg": 0.0,
      "rain_mult": 0.0,
      "soil_mult": 0.95,
      "humidity_mult": 1.038,
      "raw_dynamic_score": 0.0,
      "dynamic_level": "None"
    },
    {
      "id": "78",
      "country": "",
      "name": "Pul-e Khumrī",
      "latitude": 35.94458,
      "longitude": 68.71512,
      "base_risk": 8.5,
      "rain_6h_mm": 0.0,
      "humidity_avg": 68.2,
      "soil_moisture_avg": 0.0,
      "rain_mult": 0.0,
      "soil_mult": 0.95,
      "humidity_mult": 1.034,
      "raw_dynamic_score": 0.0,
      "dynamic_level": "None"
    },
    {
      "id": "79",
      "country": "",
      "name": "Paghmān",
      "latitude": 34.58787,
      "longitude": 68.95091,
      "base_risk": 8.5,
      "rain_6h_mm": 0.0,
      "humidity_avg": 39.7,
      "soil_moisture_avg": 0.0,
      "rain_mult": 0.0,
      "soil_mult": 0.95,
      "humidity_mult": 1.02,
      "raw_dynamic_score": 0.0,
      "dynamic_level": "None"
    },
    {
      "id": "80",
      "country": "",
      "name": "Nīlī",
      "latitude": 33.72178,
      "longitude": 66.13023,
      "base_risk": 8.5,
      "rain_6h_mm": 0.0,
      "humidity_avg": 30.7,
      "soil_moisture_avg": 0.0,
      "rain_mult": 0.0,
      "soil_mult": 0.95,
      "humidity_mult": 1.015,
      "raw_dynamic_score": 0.0,
      "dynamic_level": "None"
    },
    {
      "id": "81",
      "country": "",
      "name": "Nahrīn",
      "latitude": 36.0649,
      "longitude": 69.13343,
      "base_risk": 8.5,
      "rain_6h_mm": 0.0,
      "humidity_avg": 43.2,
      "soil_moisture_avg": 0.0,
      "rain_mult": 0.0,
      "soil_mult": 0.95,
      "humidity_mult": 1.022,
      "raw_dynamic_score": 0.0,
      "dynamic_level": "None"
    },
    {
      "id": "82",
      "country": "",
      "name": "Maymana",
      "latitude": 35.92139,
      "longitude": 64.78361,
      "base_risk": 8.5,
      "rain_6h_mm": 0.0,
      "humidity_avg": 42.3,
      "soil_moisture_avg": 0.0,
      "rain_mult": 0.0,
      "soil_mult": 0.95,
      "humidity_mult": 1.021,
      "raw_dynamic_score": 0.0,
      "dynamic_level": "None"
    },
    {
      "id": "83",
      "country": "",
      "name": "Mehtar Lām",
      "latitude": 34.67139,
      "longitude": 70.20944,
      "base_risk": 8.5,
      "rain_6h_mm": 0.0,
      "humidity_avg": 44.7,
      "soil_moisture_avg": 0.0,
      "rain_mult": 0.0,
      "soil_mult": 0.95,
      "humidity_mult": 1.022,
      "raw_dynamic_score": 0.0,
      "dynamic_level": "None"
    },
    {
      "id": "84",
      "country": "",
      "name": "Mazār-e Sharīf",
      "latitude": 36.70904,
      "longitude": 67.11087,
      "base_risk": 8.5,
      "rain_6h_mm": 0.0,
      "humidity_avg": 53.7,
      "soil_moisture_avg": 0.0,
      "rain_mult": 0.0,
      "soil_mult": 0.95,
      "humidity_mult": 1.027,
      "raw_dynamic_score": 0.0,
      "dynamic_level": "None"
    },
    {
      "id": "85",
      "country": "",
      "name": "Lashkar Gāh",
      "latitude": 31.59382,
      "longitude": 64.37161,
      "base_risk": 8.5,
      "rain_6h_mm": 0.0,
      "humidity_avg": 33.2,
      "soil_moisture_avg": 0.0,
      "rain_mult": 0.0,
      "soil_mult": 0.95,
      "humidity_mult": 1.017,
      "raw_dynamic_score": 0.0,
      "dynamic_level": "None"
    },
    {
      "id": "86",
      "country": "",
      "name": "Kushk",
      "latitude": 33.29565,
      "longitude": 61.95221,
      "base_risk": 8.5,
      "rain_6h_mm": 0.0,
      "humidity_avg": 39.8,
      "soil_moisture_avg": 0.0,
      "rain_mult": 0.0,
      "soil_mult": 0.95,
      "humidity_mult": 1.02,
      "raw_dynamic_score": 0.0,
      "dynamic_level": "None"
    },
    {
      "id": "87",
      "country": "",
      "name": "Kunduz",
      "latitude": 36.72895,
      "longitude": 68.857,
      "base_risk": 8.5,
      "rain_6h_mm": 0.0,
      "humidity_avg": 80.0,
      "soil_moisture_avg": 0.0,
      "rain_mult": 0.0,
      "soil_mult": 0.95,
      "humidity_mult": 1.04,
      "raw_dynamic_score": 0.0,
      "dynamic_level": "None"
    },
    {
      "id": "88",
      "country": "",
      "name": "Khōst",
      "latitude": 33.33951,
      "longitude": 69.92041,
      "base_risk": 8.5,
      "rain_6h_mm": 0.0,
      "humidity_avg": 31.2,
      "soil_moisture_avg": 0.0,
      "rain_mult": 0.0,
      "soil_mult": 0.95,
      "humidity_mult": 1.016,
      "raw_dynamic_score": 0.0,
      "dynamic_level": "None"
    },
    {
      "id": "89",
      "country": "",
      "name": "Khulm",
      "latitude": 36.69736,
      "longitude": 67.69826,
      "base_risk": 8.5,
      "rain_6h_mm": 0.0,
      "humidity_avg": 56.7,
      "soil_moisture_avg": 0.0,
      "rain_mult": 0.0,
      "soil_mult": 0.95,
      "humidity_mult": 1.028,
      "raw_dynamic_score": 0.0,
      "dynamic_level": "None"
    },
    {
      "id": "90",
      "country": "",
      "name": "Khāsh",
      "latitude": 31.52919,
      "longitude": 62.79055,
      "base_risk": 8.5,
      "rain_6h_mm": 0.0,
      "humidity_avg": 20.7,
      "soil_moisture_avg": 0.0,
      "rain_mult": 0.0,
      "soil_mult": 0.95,
      "humidity_mult": 1.01,
      "raw_dynamic_score": 0.0,
      "dynamic_level": "None"
    },
    {
      "id": "91",
      "country": "",
      "name": "Khān Neshīn",
      "latitude": 30.5488,
      "longitude": 63.7888,
      "base_risk": 8.5,
      "rain_6h_mm": 0.0,
      "humidity_avg": 20.2,
      "soil_moisture_avg": 0.0,
      "rain_mult": 0.0,
      "soil_mult": 0.95,
      "humidity_mult": 1.01,
      "raw_dynamic_score": 0.0,
      "dynamic_level": "None"
    },
    {
      "id": "92",
      "country": "",
      "name": "Khanabad",
      "latitude": 36.68304,
      "longitude": 69.11279,
      "base_risk": 8.5,
      "rain_6h_mm": 0.0,
      "humidity_avg": 75.7,
      "soil_moisture_avg": 0.0,
      "rain_mult": 0.0,
      "soil_mult": 0.95,
      "humidity_mult": 1.038,
      "raw_dynamic_score": 0.0,
      "dynamic_level": "None"
    },
    {
      "id": "93",
      "country": "",
      "name": "Karukh",
      "latitude": 34.48108,
      "longitude": 62.5863,
      "base_risk": 8.5,
      "rain_6h_mm": 0.0,
      "humidity_avg": 33.7,
      "soil_moisture_avg": 0.0,
      "rain_mult": 0.0,
      "soil_mult": 0.95,
      "humidity_mult": 1.017,
      "raw_dynamic_score": 0.0,
      "dynamic_level": "None"
    },
    {
      "id": "94",
      "country": "",
      "name": "Kandahār",
      "latitude": 31.61332,
      "longitude": 65.71013,
      "base_risk": 8.5,
      "rain_6h_mm": 0.0,
      "humidity_avg": 24.8,
      "soil_moisture_avg": 0.0,
      "rain_mult": 0.0,
      "soil_mult": 0.95,
      "humidity_mult": 1.012,
      "raw_dynamic_score": 0.0,
      "dynamic_level": "None"
    },
    {
      "id": "95",
      "country": "",
      "name": "Kabul",
      "latitude": 34.52813,
      "longitude": 69.17233,
      "base_risk": 8.5,
      "rain_6h_mm": 0.0,
      "humidity_avg": 26.3,
      "soil_moisture_avg": 0.0,
      "rain_mult": 0.0,
      "soil_mult": 0.95,
      "humidity_mult": 1.013,
      "raw_dynamic_score": 0.0,
      "dynamic_level": "None"
    },
    {
      "id": "96",
      "country": "",
      "name": "Jalālābād",
      "latitude": 34.42647,
      "longitude": 70.45153,
      "base_risk": 8.5,
      "rain_6h_mm": 0.0,
      "humidity_avg": 53.8,
      "soil_moisture_avg": 0.0,
      "rain_mult": 0.0,
      "soil_mult": 0.95,
      "humidity_mult": 1.027,
      "raw_dynamic_score": 0.0,
      "dynamic_level": "None"
    },
    {
      "id": "97",
      "country": "",
      "name": "Jabal os Saraj",
      "latitude": 35.11833,
      "longitude": 69.23778,
      "base_risk": 8.5,
      "rain_6h_mm": 0.0,
      "humidity_avg": 22.7,
      "soil_moisture_avg": 0.0,
      "rain_mult": 0.0,
      "soil_mult": 0.95,
      "humidity_mult": 1.011,
      "raw_dynamic_score": 0.0,
      "dynamic_level": "None"
    },
    {
      "id": "98",
      "country": "",
      "name": "Herāt",
      "latitude": 34.34817,
      "longitude": 62.19967,
      "base_risk": 8.5,
      "rain_6h_mm": 0.0,
      "humidity_avg": 38.2,
      "soil_moisture_avg": 0.0,
      "rain_mult": 0.0,
      "soil_mult": 0.95,
      "humidity_mult": 1.019,
      "raw_dynamic_score": 0.0,
      "dynamic_level": "None"
    },
    {
      "id": "99",
      "country": "",
      "name": "Ghormach",
      "latitude": 35.73062,
      "longitude": 63.78264,
      "base_risk": 8.5,
      "rain_6h_mm": 0.0,
      "humidity_avg": 66.3,
      "soil_moisture_avg": 0.0,
      "rain_mult": 0.0,
      "soil_mult": 0.95,
      "humidity_mult": 1.033,
      "raw_dynamic_score": 0.0,
      "dynamic_level": "None"
    },
    {
      "id": "100",
      "country": "",
      "name": "Ghazni",
      "latitude": 33.55391,
      "longitude": 68.42096,
      "base_risk": 8.5,
      "rain_6h_mm": 0.0,
      "humidity_avg": 45.5,
      "soil_moisture_avg": 0.0,
      "rain_mult": 0.0,
      "soil_mult": 0.95,
      "humidity_mult": 1.023,
      "raw_dynamic_score": 0.0,
      "dynamic_level": "None"
    },
    {
      "id": "101",
      "country": "",
      "name": "Gereshk",
      "latitude": 31.82089,
      "longitude": 64.57005,
      "base_risk": 8.5,
      "rain_6h_mm": 0.0,
      "humidity_avg": 37.0,
      "soil_moisture_avg": 0.0,
      "rain_mult": 0.0,
      "soil_mult": 0.95,
      "humidity_mult": 1.018,
      "raw_dynamic_score": 0.0,
      "dynamic_level": "None"
    },
    {
      "id": "102",
      "country": "",
      "name": "Gardez",
      "latitude": 33.59744,
      "longitude": 69.22592,
      "base_risk": 8.5,
      "rain_6h_mm": 0.0,
      "humidity_avg": 33.2,
      "soil_moisture_avg": 0.0,
      "rain_mult": 0.0,
      "soil_mult": 0.95,
      "humidity_mult": 1.017,
      "raw_dynamic_score": 0.0,
      "dynamic_level": "None"
    },
    {
      "id": "103",
      "country": "",
      "name": "Fayzabad",
      "latitude": 37.11664,
      "longitude": 70.58002,
      "base_risk": 8.5,
      "rain_6h_mm": 0.0,
      "humidity_avg": 72.7,
      "soil_moisture_avg": 0.0,
      "rain_mult": 0.0,
      "soil_mult": 0.95,
      "humidity_mult": 1.036,
      "raw_dynamic_score": 0.0,
      "dynamic_level": "None"
    },
    {
      "id": "104",
      "country": "",
      "name": "Farah",
      "latitude": 32.37451,
      "longitude": 62.11638,
      "base_risk": 8.5,
      "rain_6h_mm": 0.0,
      "humidity_avg": 26.7,
      "soil_moisture_avg": 0.0,
      "rain_mult": 0.0,
      "soil_mult": 0.95,
      "humidity_mult": 1.013,
      "raw_dynamic_score": 0.0,
      "dynamic_level": "None"
    },
    {
      "id": "105",
      "country": "",
      "name": "Eslam Qaleh",
      "latitude": 34.66667,
      "longitude": 61.06667,
      "base_risk": 8.5,
      "rain_6h_mm": 0.0,
      "humidity_avg": 59.8,
      "soil_moisture_avg": 0.0,
      "rain_mult": 0.0,
      "soil_mult": 0.95,
      "humidity_mult": 1.03,
      "raw_dynamic_score": 0.0,
      "dynamic_level": "None"
    },
    {
      "id": "106",
      "country": "",
      "name": "Charikar",
      "latitude": 35.01361,
      "longitude": 69.17139,
      "base_risk": 8.5,
      "rain_6h_mm": 0.0,
      "humidity_avg": 24.0,
      "soil_moisture_avg": 0.0,
      "rain_mult": 0.0,
      "soil_mult": 0.95,
      "humidity_mult": 1.012,
      "raw_dynamic_score": 0.0,
      "dynamic_level": "None"
    },
    {
      "id": "107",
      "country": "",
      "name": "Baraki Barak",
      "latitude": 33.96744,
      "longitude": 68.9492,
      "base_risk": 8.5,
      "rain_6h_mm": 0.0,
      "humidity_avg": 27.3,
      "soil_moisture_avg": 0.0,
      "rain_mult": 0.0,
      "soil_mult": 0.95,
      "humidity_mult": 1.014,
      "raw_dynamic_score": 0.0,
      "dynamic_level": "None"
    },
    {
      "id": "108",
      "country": "",
      "name": "Bāmyān",
      "latitude": 34.82156,
      "longitude": 67.82734,
      "base_risk": 8.5,
      "rain_6h_mm": 0.0,
      "humidity_avg": 35.2,
      "soil_moisture_avg": 0.0,
      "rain_mult": 0.0,
      "soil_mult": 0.95,
      "humidity_mult": 1.018,
      "raw_dynamic_score": 0.0,
      "dynamic_level": "None"
    },
    {
      "id": "109",
      "country": "",
      "name": "Balkh",
      "latitude": 36.75635,
      "longitude": 66.8972,
      "base_risk": 8.5,
      "rain_6h_mm": 0.0,
      "humidity_avg": 53.7,
      "soil_moisture_avg": 0.0,
      "rain_mult": 0.0,
      "soil_mult": 0.95,
      "humidity_mult": 1.027,
      "raw_dynamic_score": 0.0,
      "dynamic_level": "None"
    },
    {
      "id": "110",
      "country": "",
      "name": "Baghlān",
      "latitude": 36.13068,
      "longitude": 68.70829,
      "base_risk": 8.5,
      "rain_6h_mm": 0.0,
      "humidity_avg": 64.0,
      "soil_moisture_avg": 0.0,
      "rain_mult": 0.0,
      "soil_mult": 0.95,
      "humidity_mult": 1.032,
      "raw_dynamic_score": 0.0,
      "dynamic_level": "None"
    },
    {
      "id": "111",
      "country": "",
      "name": "Ārt Khwājah",
      "latitude": 37.08571,
      "longitude": 69.47958,
      "base_risk": 8.5,
      "rain_6h_mm": 0.0,
      "humidity_avg": 69.2,
      "soil_moisture_avg": 0.0,
      "rain_mult": 0.0,
      "soil_mult": 0.95,
      "humidity_mult": 1.035,
      "raw_dynamic_score": 0.0,
      "dynamic_level": "None"
    },
    {
      "id": "112",
      "country": "",
      "name": "Āsmār",
      "latitude": 35.03333,
      "longitude": 71.35809,
      "base_risk": 8.5,
      "rain_6h_mm": 0.0,
      "humidity_avg": 27.0,
      "soil_moisture_avg": 0.0,
      "rain_mult": 0.0,
      "soil_mult": 0.95,
      "humidity_mult": 1.014,
      "raw_dynamic_score": 0.0,
      "dynamic_level": "None"
    },
    {
      "id": "113",
      "country": "",
      "name": "Asadābād",
      "latitude": 34.87311,
      "longitude": 71.14697,
      "base_risk": 8.5,
      "rain_6h_mm": 0.0,
      "humidity_avg": 25.3,
      "soil_moisture_avg": 0.0,
      "rain_mult": 0.0,
      "soil_mult": 0.95,
      "humidity_mult": 1.013,
      "raw_dynamic_score": 0.0,
      "dynamic_level": "None"
    },
    {
      "id": "114",
      "country": "",
      "name": "Andkhōy",
      "latitude": 36.95293,
      "longitude": 65.12376,
      "base_risk": 8.5,
      "rain_6h_mm": 0.0,
      "humidity_avg": 45.2,
      "soil_moisture_avg": 0.0,
      "rain_mult": 0.0,
      "soil_mult": 0.95,
      "humidity_mult": 1.023,
      "raw_dynamic_score": 0.0,
      "dynamic_level": "None"
    },
    {
      "id": "115",
      "country": "",
      "name": "Bāzārak",
      "latitude": 35.31292,
      "longitude": 69.51519,
      "base_risk": 8.5,
      "rain_6h_mm": 0.0,
      "humidity_avg": 23.8,
      "soil_moisture_avg": 0.0,
      "rain_mult": 0.0,
      "soil_mult": 0.95,
      "humidity_mult": 1.012,
      "raw_dynamic_score": 0.0,
      "dynamic_level": "None"
    },
    {
      "id": "116",
      "country": "",
      "name": "Markaz-e Woluswalī-ye Āchīn",
      "latitude": 34.12583,
      "longitude": 70.70778,
      "base_risk": 8.5,
      "rain_6h_mm": 0.0,
      "humidity_avg": 40.2,
      "soil_moisture_avg": 0.0,
      "rain_mult": 0.0,
      "soil_mult": 0.95,
      "humidity_mult": 1.02,
      "raw_dynamic_score": 0.0,
      "dynamic_level": "None"
    },
    {
      "id": "117",
      "country": "",
      "name": "Saint John’s",
      "latitude": 17.12096,
      "longitude": -61.84329,
      "base_risk": 8.5,
      "rain_6h_mm": 0.9,
      "humidity_avg": 67.5,
      "soil_moisture_avg": 0.0,
      "rain_mult": 0.009,
      "soil_mult": 0.95,
      "humidity_mult": 1.034,
      "raw_dynamic_score": 0.075,
      "dynamic_level": "Low"
    },
    {
      "id": "118",
      "country": "",
      "name": "The Valley",
      "latitude": 18.21704,
      "longitude": -63.05783,
      "base_risk": 8.5,
      "rain_6h_mm": 0.4,
      "humidity_avg": 76.0,
      "soil_moisture_avg": 0.0,
      "rain_mult": 0.004,
      "soil_mult": 0.95,
      "humidity_mult": 1.038,
      "raw_dynamic_score": 0.034,
      "dynamic_level": "Low"
    },
    {
      "id": "119",
      "country": "",
      "name": "Sarandë",
      "latitude": 39.87534,
      "longitude": 20.00477,
      "base_risk": 8.5,
      "rain_6h_mm": 0.8,
      "humidity_avg": 89.8,
      "soil_moisture_avg": 0.0,
      "rain_mult": 0.008,
      "soil_mult": 0.95,
      "humidity_mult": 1.045,
      "raw_dynamic_score": 0.068,
      "dynamic_level": "Low"
    },
    {
      "id": "120",
      "country": "",
      "name": "Pogradec",
      "latitude": 40.9025,
      "longitude": 20.6525,
      "base_risk": 8.5,
      "rain_6h_mm": 0.0,
      "humidity_avg": 73.8,
      "soil_moisture_avg": 0.0,
      "rain_mult": 0.0,
      "soil_mult": 0.95,
      "humidity_mult": 1.037,
      "raw_dynamic_score": 0.0,
      "dynamic_level": "None"
    },
    {
      "id": "121",
      "country": "",
      "name": "Librazhd",
      "latitude": 41.17944,
      "longitude": 20.315,
      "base_risk": 8.5,
      "rain_6h_mm": 0.1,
      "humidity_avg": 92.7,
      "soil_moisture_avg": 0.0,
      "rain_mult": 0.001,
      "soil_mult": 0.95,
      "humidity_mult": 1.046,
      "raw_dynamic_score": 0.008,
      "dynamic_level": "Low"
    },
    {
      "id": "122",
      "country": "",
      "name": "Kukës",
      "latitude": 42.07694,
      "longitude": 20.42194,
      "base_risk": 8.5,
      "rain_6h_mm": 0.0,
      "humidity_avg": 69.7,
      "soil_moisture_avg": 0.0,
      "rain_mult": 0.0,
      "soil_mult": 0.95,
      "humidity_mult": 1.035,
      "raw_dynamic_score": 0.0,
      "dynamic_level": "None"
    },
    {
      "id": "123",
      "country": "",
      "name": "Korçë",
      "latitude": 40.61861,
      "longitude": 20.78083,
      "base_risk": 8.5,
      "rain_6h_mm": 0.0,
      "humidity_avg": 87.2,
      "soil_moisture_avg": 0.0,
      "rain_mult": 0.0,
      "soil_mult": 0.95,
      "humidity_mult": 1.044,
      "raw_dynamic_score": 0.0,
      "dynamic_level": "None"
    },
    {
      "id": "124",
      "country": "",
      "name": "Gjirokastër",
      "latitude": 40.07583,
      "longitude": 20.13889,
      "base_risk": 8.5,
      "rain_6h_mm": 0.0,
      "humidity_avg": 81.7,
      "soil_moisture_avg": 0.0,
      "rain_mult": 0.0,
      "soil_mult": 0.95,
      "humidity_mult": 1.041,
      "raw_dynamic_score": 0.0,
      "dynamic_level": "None"
    },
    {
      "id": "125",
      "country": "",
      "name": "Elbasan",
      "latitude": 41.11138,
      "longitude": 20.08224,
      "base_risk": 8.5,
      "rain_6h_mm": 0.1,
      "humidity_avg": 90.5,
      "soil_moisture_avg": 0.0,
      "rain_mult": 0.001,
      "soil_mult": 0.95,
      "humidity_mult": 1.045,
      "raw_dynamic_score": 0.008,
      "dynamic_level": "Low"
    },
    {
      "id": "126",
      "country": "",
      "name": "Bulqizë",
      "latitude": 41.49167,
      "longitude": 20.22194,
      "base_risk": 8.5,
      "rain_6h_mm": 0.0,
      "humidity_avg": 83.8,
      "soil_moisture_avg": 0.0,
      "rain_mult": 0.0,
      "soil_mult": 0.95,
      "humidity_mult": 1.042,
      "raw_dynamic_score": 0.0,
      "dynamic_level": "None"
    },
    {
      "id": "127",
      "country": "",
      "name": "Vlorë",
      "latitude": 40.4696,
      "longitude": 19.48379,
      "base_risk": 8.5,
      "rain_6h_mm": 0.1,
      "humidity_avg": 91.3,
      "soil_moisture_avg": 0.0,
      "rain_mult": 0.001,
      "soil_mult": 0.95,
      "humidity_mult": 1.046,
      "raw_dynamic_score": 0.008,
      "dynamic_level": "Low"
    },
    {
      "id": "128",
      "country": "",
      "name": "Tirana",
      "latitude": 41.32744,
      "longitude": 19.81866,
      "base_risk": 8.5,
      "rain_6h_mm": 0.0,
      "humidity_avg": 85.7,
      "soil_moisture_avg": 0.0,
      "rain_mult": 0.0,
      "soil_mult": 0.95,
      "humidity_mult": 1.043,
      "raw_dynamic_score": 0.0,
      "dynamic_level": "None"
    },
    {
      "id": "129",
      "country": "",
      "name": "Shkodër",
      "latitude": 42.06828,
      "longitude": 19.51258,
      "base_risk": 8.5,
      "rain_6h_mm": 0.0,
      "humidity_avg": 75.8,
      "soil_moisture_avg": 0.0,
      "rain_mult": 0.0,
      "soil_mult": 0.95,
      "humidity_mult": 1.038,
      "raw_dynamic_score": 0.0,
      "dynamic_level": "None"
    },
    {
      "id": "130",
      "country": "",
      "name": "Peqin",
      "latitude": 41.04611,
      "longitude": 19.75111,
      "base_risk": 8.5,
      "rain_6h_mm": 0.0,
      "humidity_avg": 92.3,
      "soil_moisture_avg": 0.0,
      "rain_mult": 0.0,
      "soil_mult": 0.95,
      "humidity_mult": 1.046,
      "raw_dynamic_score": 0.0,
      "dynamic_level": "None"
    },
    {
      "id": "131",
      "country": "",
      "name": "Patos Fshat",
      "latitude": 40.64278,
      "longitude": 19.65083,
      "base_risk": 8.5,
      "rain_6h_mm": 0.0,
      "humidity_avg": 94.3,
      "soil_moisture_avg": 0.0,
      "rain_mult": 0.0,
      "soil_mult": 0.95,
      "humidity_mult": 1.047,
      "raw_dynamic_score": 0.0,
      "dynamic_level": "None"
    },
    {
      "id": "132",
      "country": "",
      "name": "Patos",
      "latitude": 40.68333,
      "longitude": 19.61944,
      "base_risk": 8.5,
      "rain_6h_mm": 0.0,
      "humidity_avg": 90.5,
      "soil_moisture_avg": 0.0,
      "rain_mult": 0.0,
      "soil_mult": 0.95,
      "humidity_mult": 1.045,
      "raw_dynamic_score": 0.0,
      "dynamic_level": "None"
    },
    {
      "id": "133",
      "country": "",
      "name": "Lushnjë",
      "latitude": 40.94194,
      "longitude": 19.705,
      "base_risk": 8.5,
      "rain_6h_mm": 0.0,
      "humidity_avg": 94.2,
      "soil_moisture_avg": 0.0,
      "rain_mult": 0.0,
      "soil_mult": 0.95,
      "humidity_mult": 1.047,
      "raw_dynamic_score": 0.0,
      "dynamic_level": "None"
    },
    {
      "id": "134",
      "country": "",
      "name": "Lezhë",
      "latitude": 41.78361,
      "longitude": 19.64361,
      "base_risk": 8.5,
      "rain_6h_mm": 0.0,
      "humidity_avg": 77.2,
      "soil_moisture_avg": 0.0,
      "rain_mult": 0.0,
      "soil_mult": 0.95,
      "humidity_mult": 1.039,
      "raw_dynamic_score": 0.0,
      "dynamic_level": "None"
    },
    {
      "id": "135",
      "country": "",
      "name": "Kuçovë",
      "latitude": 40.80028,
      "longitude": 19.91667,
      "base_risk": 8.5,
      "rain_6h_mm": 0.0,
      "humidity_avg": 92.3,
      "soil_moisture_avg": 0.0,
      "rain_mult": 0.0,
      "soil_mult": 0.95,
      "humidity_mult": 1.046,
      "raw_dynamic_score": 0.0,
      "dynamic_level": "None"
    },
    {
      "id": "136",
      "country": "",
      "name": "Krujë",
      "latitude": 41.50917,
      "longitude": 19.79278,
      "base_risk": 8.5,
      "rain_6h_mm": 0.0,
      "humidity_avg": 84.2,
      "soil_moisture_avg": 0.0,
      "rain_mult": 0.0,
      "soil_mult": 0.95,
      "humidity_mult": 1.042,
      "raw_dynamic_score": 0.0,
      "dynamic_level": "None"
    },
    {
      "id": "137",
      "country": "",
      "name": "Kavajë",
      "latitude": 41.18556,
      "longitude": 19.55694,
      "base_risk": 8.5,
      "rain_6h_mm": 0.0,
      "humidity_avg": 87.5,
      "soil_moisture_avg": 0.0,
      "rain_mult": 0.0,
      "soil_mult": 0.95,
      "humidity_mult": 1.044,
      "raw_dynamic_score": 0.0,
      "dynamic_level": "None"
    },
    {
      "id": "138",
      "country": "",
      "name": "Fier-Çifçi",
      "latitude": 40.71667,
      "longitude": 19.56667,
      "base_risk": 8.5,
      "rain_6h_mm": 0.0,
      "humidity_avg": 92.3,
      "soil_moisture_avg": 0.0,
      "rain_mult": 0.0,
      "soil_mult": 0.95,
      "humidity_mult": 1.046,
      "raw_dynamic_score": 0.0,
      "dynamic_level": "None"
    },
    {
      "id": "139",
      "country": "",
      "name": "Fier",
      "latitude": 40.7251,
      "longitude": 19.55823,
      "base_risk": 8.5,
      "rain_6h_mm": 0.0,
      "humidity_avg": 92.3,
      "soil_moisture_avg": 0.0,
      "rain_mult": 0.0,
      "soil_mult": 0.95,
      "humidity_mult": 1.046,
      "raw_dynamic_score": 0.0,
      "dynamic_level": "None"
    },
    {
      "id": "140",
      "country": "",
      "name": "Durrës",
      "latitude": 41.32355,
      "longitude": 19.45469,
      "base_risk": 8.5,
      "rain_6h_mm": 0.0,
      "humidity_avg": 82.2,
      "soil_moisture_avg": 0.0,
      "rain_mult": 0.0,
      "soil_mult": 0.95,
      "humidity_mult": 1.041,
      "raw_dynamic_score": 0.0,
      "dynamic_level": "None"
    },
    {
      "id": "141",
      "country": "",
      "name": "Berat",
      "latitude": 40.70583,
      "longitude": 19.95222,
      "base_risk": 8.5,
      "rain_6h_mm": 0.0,
      "humidity_avg": 89.7,
      "soil_moisture_avg": 0.0,
      "rain_mult": 0.0,
      "soil_mult": 0.95,
      "humidity_mult": 1.045,
      "raw_dynamic_score": 0.0,
      "dynamic_level": "None"
    },
    {
      "id": "142",
      "country": "",
      "name": "Kapan",
      "latitude": 39.20762,
      "longitude": 46.40678,
      "base_risk": 8.5,
      "rain_6h_mm": 0.0,
      "humidity_avg": 78.3,
      "soil_moisture_avg": 0.0,
      "rain_mult": 0.0,
      "soil_mult": 0.95,
      "humidity_mult": 1.039,
      "raw_dynamic_score": 0.0,
      "dynamic_level": "None"
    },
    {
      "id": "143",
      "country": "",
      "name": "Goris",
      "latitude": 39.51111,
      "longitude": 46.34168,
      "base_risk": 8.5,
      "rain_6h_mm": 0.0,
      "humidity_avg": 34.3,
      "soil_moisture_avg": 0.0,
      "rain_mult": 0.0,
      "soil_mult": 0.95,
      "humidity_mult": 1.017,
      "raw_dynamic_score": 0.0,
      "dynamic_level": "None"
    },
    {
      "id": "144",
      "country": "",
      "name": "Artashat",
      "latitude": 39.95484,
      "longitude": 44.54874,
      "base_risk": 8.5,
      "rain_6h_mm": 0.0,
      "humidity_avg": 75.7,
      "soil_moisture_avg": 0.0,
      "rain_mult": 0.0,
      "soil_mult": 0.95,
      "humidity_mult": 1.038,
      "raw_dynamic_score": 0.0,
      "dynamic_level": "None"
    },
    {
      "id": "145",
      "country": "",
      "name": "Ararat",
      "latitude": 39.85494,
      "longitude": 44.6947,
      "base_risk": 8.5,
      "rain_6h_mm": 0.0,
      "humidity_avg": 72.5,
      "soil_moisture_avg": 0.0,
      "rain_mult": 0.0,
      "soil_mult": 0.95,
      "humidity_mult": 1.036,
      "raw_dynamic_score": 0.0,
      "dynamic_level": "None"
    },
    {
      "id": "146",
      "country": "",
      "name": "Yerevan",
      "latitude": 40.17765,
      "longitude": 44.5126,
      "base_risk": 8.5,
      "rain_6h_mm": 0.0,
      "humidity_avg": 61.8,
      "soil_moisture_avg": 0.0,
      "rain_mult": 0.0,
      "soil_mult": 0.95,
      "humidity_mult": 1.031,
      "raw_dynamic_score": 0.0,
      "dynamic_level": "None"
    },
    {
      "id": "147",
      "country": "",
      "name": "Vagharshapat",
      "latitude": 40.16557,
      "longitude": 44.29462,
      "base_risk": 8.5,
      "rain_6h_mm": 0.0,
      "humidity_avg": 75.5,
      "soil_moisture_avg": 0.0,
      "rain_mult": 0.0,
      "soil_mult": 0.95,
      "humidity_mult": 1.038,
      "raw_dynamic_score": 0.0,
      "dynamic_level": "None"
    },
    {
      "id": "148",
      "country": "",
      "name": "Sevan",
      "latitude": 40.548,
      "longitude": 44.95314,
      "base_risk": 8.5,
      "rain_6h_mm": 0.1,
      "humidity_avg": 54.8,
      "soil_moisture_avg": 0.0,
      "rain_mult": 0.001,
      "soil_mult": 0.95,
      "humidity_mult": 1.027,
      "raw_dynamic_score": 0.008,
      "dynamic_level": "Low"
    },
    {
      "id": "149",
      "country": "",
      "name": "Masis",
      "latitude": 40.06595,
      "longitude": 44.43669,
      "base_risk": 8.5,
      "rain_6h_mm": 0.0,
      "humidity_avg": 75.0,
      "soil_moisture_avg": 0.0,
      "rain_mult": 0.0,
      "soil_mult": 0.95,
      "humidity_mult": 1.038,
      "raw_dynamic_score": 0.0,
      "dynamic_level": "None"
    },
    {
      "id": "150",
      "country": "",
      "name": "Vanadzor",
      "latitude": 40.8074,
      "longitude": 44.49704,
      "base_risk": 8.5,
      "rain_6h_mm": 0.0,
      "humidity_avg": 51.0,
      "soil_moisture_avg": 0.0,
      "rain_mult": 0.0,
      "soil_mult": 0.95,
      "humidity_mult": 1.026,
      "raw_dynamic_score": 0.0,
      "dynamic_level": "None"
    },
    {
      "id": "151",
      "country": "",
      "name": "Gavar",
      "latitude": 40.35398,
      "longitude": 45.12386,
      "base_risk": 8.5,
      "rain_6h_mm": 0.1,
      "humidity_avg": 63.5,
      "soil_moisture_avg": 0.0,
      "rain_mult": 0.001,
      "soil_mult": 0.95,
      "humidity_mult": 1.032,
      "raw_dynamic_score": 0.008,
      "dynamic_level": "Low"
    },
    {
      "id": "152",
      "country": "",
      "name": "Ijevan",
      "latitude": 40.88037,
      "longitude": 45.14776,
      "base_risk": 8.5,
      "rain_6h_mm": 0.0,
      "humidity_avg": 56.0,
      "soil_moisture_avg": 0.0,
      "rain_mult": 0.0,
      "soil_mult": 0.95,
      "humidity_mult": 1.028,
      "raw_dynamic_score": 0.0,
      "dynamic_level": "None"
    },
    {
      "id": "153",
      "country": "",
      "name": "Hrazdan",
      "latitude": 40.5169,
      "longitude": 44.75591,
      "base_risk": 8.5,
      "rain_6h_mm": 0.0,
      "humidity_avg": 61.3,
      "soil_moisture_avg": 0.0,
      "rain_mult": 0.0,
      "soil_mult": 0.95,
      "humidity_mult": 1.031,
      "raw_dynamic_score": 0.0,
      "dynamic_level": "None"
    },
    {
      "id": "154",
      "country": "",
      "name": "Armavir",
      "latitude": 40.15553,
      "longitude": 44.0388,
      "base_risk": 8.5,
      "rain_6h_mm": 0.0,
      "humidity_avg": 79.3,
      "soil_moisture_avg": 0.0,
      "rain_mult": 0.0,
      "soil_mult": 0.95,
      "humidity_mult": 1.04,
      "raw_dynamic_score": 0.0,
      "dynamic_level": "None"
    },
    {
      "id": "155",
      "country": "",
      "name": "Gyumri",
      "latitude": 40.79305,
      "longitude": 43.84635,
      "base_risk": 8.5,
      "rain_6h_mm": 0.2,
      "humidity_avg": 75.2,
      "soil_moisture_avg": 0.0,
      "rain_mult": 0.002,
      "soil_mult": 0.95,
      "humidity_mult": 1.038,
      "raw_dynamic_score": 0.017,
      "dynamic_level": "Low"
    },
    {
      "id": "156",
      "country": "",
      "name": "Dilijan",
      "latitude": 40.74037,
      "longitude": 44.86344,
      "base_risk": 8.5,
      "rain_6h_mm": 0.0,
      "humidity_avg": 63.2,
      "soil_moisture_avg": 0.0,
      "rain_mult": 0.0,
      "soil_mult": 0.95,
      "humidity_mult": 1.032,
      "raw_dynamic_score": 0.0,
      "dynamic_level": "None"
    },
    {
      "id": "157",
      "country": "",
      "name": "Davtashen",
      "latitude": 40.21642,
      "longitude": 44.48088,
      "base_risk": 8.5,
      "rain_6h_mm": 0.0,
      "humidity_avg": 61.8,
      "soil_moisture_avg": 0.0,
      "rain_mult": 0.0,
      "soil_mult": 0.95,
      "humidity_mult": 1.031,
      "raw_dynamic_score": 0.0,
      "dynamic_level": "None"
    },
    {
      "id": "158",
      "country": "",
      "name": "Charentsavan",
      "latitude": 40.40289,
      "longitude": 44.64447,
      "base_risk": 8.5,
      "rain_6h_mm": 0.1,
      "humidity_avg": 59.0,
      "soil_moisture_avg": 0.0,
      "rain_mult": 0.001,
      "soil_mult": 0.95,
      "humidity_mult": 1.03,
      "raw_dynamic_score": 0.008,
      "dynamic_level": "Low"
    },
    {
      "id": "159",
      "country": "",
      "name": "Avan",
      "latitude": 40.21436,
      "longitude": 44.57846,
      "base_risk": 8.5,
      "rain_6h_mm": 0.0,
      "humidity_avg": 59.2,
      "soil_moisture_avg": 0.0,
      "rain_mult": 0.0,
      "soil_mult": 0.95,
      "humidity_mult": 1.03,
      "raw_dynamic_score": 0.0,
      "dynamic_level": "None"
    },
    {
      "id": "160",
      "country": "",
      "name": "Ashtarak",
      "latitude": 40.2976,
      "longitude": 44.36152,
      "base_risk": 8.5,
      "rain_6h_mm": 0.0,
      "humidity_avg": 70.3,
      "soil_moisture_avg": 0.0,
      "rain_mult": 0.0,
      "soil_mult": 0.95,
      "humidity_mult": 1.035,
      "raw_dynamic_score": 0.0,
      "dynamic_level": "None"
    },
    {
      "id": "161",
      "country": "",
      "name": "Artik",
      "latitude": 40.61918,
      "longitude": 43.97207,
      "base_risk": 8.5,
      "rain_6h_mm": 0.3,
      "humidity_avg": 72.7,
      "soil_moisture_avg": 0.0,
      "rain_mult": 0.003,
      "soil_mult": 0.95,
      "humidity_mult": 1.036,
      "raw_dynamic_score": 0.025,
      "dynamic_level": "Low"
    },
    {
      "id": "162",
      "country": "",
      "name": "Abovyan",
      "latitude": 40.2717,
      "longitude": 44.63342,
      "base_risk": 8.5,
      "rain_6h_mm": 0.1,
      "humidity_avg": 69.2,
      "soil_moisture_avg": 0.0,
      "rain_mult": 0.001,
      "soil_mult": 0.95,
      "humidity_mult": 1.035,
      "raw_dynamic_score": 0.008,
      "dynamic_level": "Low"
    },
    {
      "id": "163",
      "country": "",
      "name": "Erebuni",
      "latitude": 40.13309,
      "longitude": 44.53009,
      "base_risk": 8.5,
      "rain_6h_mm": 0.0,
      "humidity_avg": 65.7,
      "soil_moisture_avg": 0.0,
      "rain_mult": 0.0,
      "soil_mult": 0.95,
      "humidity_mult": 1.033,
      "raw_dynamic_score": 0.0,
      "dynamic_level": "None"
    },
    {
      "id": "164",
      "country": "",
      "name": "Nor Nork",
      "latitude": 40.19661,
      "longitude": 44.5669,
      "base_risk": 8.5,
      "rain_6h_mm": 0.0,
      "humidity_avg": 59.2,
      "soil_moisture_avg": 0.0,
      "rain_mult": 0.0,
      "soil_mult": 0.95,
      "humidity_mult": 1.03,
      "raw_dynamic_score": 0.0,
      "dynamic_level": "None"
    },
    {
      "id": "165",
      "country": "",
      "name": "Ajapnyak",
      "latitude": 40.19917,
      "longitude": 44.47056,
      "base_risk": 8.5,
      "rain_6h_mm": 0.0,
      "humidity_avg": 61.8,
      "soil_moisture_avg": 0.0,
      "rain_mult": 0.0,
      "soil_mult": 0.95,
      "humidity_mult": 1.031,
      "raw_dynamic_score": 0.0,
      "dynamic_level": "None"
    },
    {
      "id": "166",
      "country": "",
      "name": "Kanaker-Zeytun",
      "latitude": 40.22,
      "longitude": 44.53833,
      "base_risk": 8.5,
      "rain_6h_mm": 0.0,
      "humidity_avg": 68.3,
      "soil_moisture_avg": 0.0,
      "rain_mult": 0.0,
      "soil_mult": 0.95,
      "humidity_mult": 1.034,
      "raw_dynamic_score": 0.0,
      "dynamic_level": "None"
    },
    {
      "id": "167",
      "country": "",
      "name": "Malatia-Sebastia",
      "latitude": 40.17396,
      "longitude": 44.4457,
      "base_risk": 8.5,
      "rain_6h_mm": 0.0,
      "humidity_avg": 68.5,
      "soil_moisture_avg": 0.0,
      "rain_mult": 0.0,
      "soil_mult": 0.95,
      "humidity_mult": 1.034,
      "raw_dynamic_score": 0.0,
      "dynamic_level": "None"
    },
    {
      "id": "168",
      "country": "",
      "name": "Kentron",
      "latitude": 40.17806,
      "longitude": 44.51303,
      "base_risk": 8.5,
      "rain_6h_mm": 0.0,
      "humidity_avg": 61.8,
      "soil_moisture_avg": 0.0,
      "rain_mult": 0.0,
      "soil_mult": 0.95,
      "humidity_mult": 1.031,
      "raw_dynamic_score": 0.0,
      "dynamic_level": "None"
    },
    {
      "id": "169",
      "country": "",
      "name": "Shengavit",
      "latitude": 40.1557,
      "longitude": 44.4779,
      "base_risk": 8.5,
      "rain_6h_mm": 0.0,
      "humidity_avg": 65.7,
      "soil_moisture_avg": 0.0,
      "rain_mult": 0.0,
      "soil_mult": 0.95,
      "humidity_mult": 1.033,
      "raw_dynamic_score": 0.0,
      "dynamic_level": "None"
    },
    {
      "id": "170",
      "country": "",
      "name": "Arabkir",
      "latitude": 40.20624,
      "longitude": 44.50365,
      "base_risk": 8.5,
      "rain_6h_mm": 0.0,
      "humidity_avg": 61.8,
      "soil_moisture_avg": 0.0,
      "rain_mult": 0.0,
      "soil_mult": 0.95,
      "humidity_mult": 1.031,
      "raw_dynamic_score": 0.0,
      "dynamic_level": "None"
    },
    {
      "id": "171",
      "country": "",
      "name": "Saurimo",
      "latitude": -9.66078,
      "longitude": 20.39155,
      "base_risk": 8.5,
      "rain_6h_mm": 0.0,
      "humidity_avg": 65.2,
      "soil_moisture_avg": 0.0,
      "rain_mult": 0.0,
      "soil_mult": 0.95,
      "humidity_mult": 1.033,
      "raw_dynamic_score": 0.0,
      "dynamic_level": "None"
    },
    {
      "id": "172",
      "country": "",
      "name": "Lucapa",
      "latitude": -8.41915,
      "longitude": 20.74466,
      "base_risk": 8.5,
      "rain_6h_mm": 0.0,
      "humidity_avg": 68.7,
      "soil_moisture_avg": 0.0,
      "rain_mult": 0.0,
      "soil_mult": 0.95,
      "humidity_mult": 1.034,
      "raw_dynamic_score": 0.0,
      "dynamic_level": "None"
    },
    {
      "id": "173",
      "country": "",
      "name": "Dundo",
      "latitude": -7.36643,
      "longitude": 20.81557,
      "base_risk": 8.5,
      "rain_6h_mm": 0.1,
      "humidity_avg": 78.5,
      "soil_moisture_avg": 0.0,
      "rain_mult": 0.001,
      "soil_mult": 0.95,
      "humidity_mult": 1.039,
      "raw_dynamic_score": 0.008,
      "dynamic_level": "Low"
    },
    {
      "id": "174",
      "country": "",
      "name": "Chitato",
      "latitude": -7.3,
      "longitude": 20.73333,
      "base_risk": 8.5,
      "rain_6h_mm": 0.4,
      "humidity_avg": 79.3,
      "soil_moisture_avg": 0.0,
      "rain_mult": 0.004,
      "soil_mult": 0.95,
      "humidity_mult": 1.04,
      "raw_dynamic_score": 0.034,
      "dynamic_level": "Low"
    },
    {
      "id": "175",
      "country": "",
      "name": "Cassanguidi",
      "latitude": -7.48367,
      "longitude": 21.30339,
      "base_risk": 8.5,
      "rain_6h_mm": 0.3,
      "humidity_avg": 78.5,
      "soil_moisture_avg": 0.0,
      "rain_mult": 0.003,
      "soil_mult": 0.95,
      "humidity_mult": 1.039,
      "raw_dynamic_score": 0.025,
      "dynamic_level": "Low"
    },
    {
      "id": "176",
      "country": "",
      "name": "Lumbala",
      "latitude": -14.10165,
      "longitude": 21.43531,
      "base_risk": 8.5,
      "rain_6h_mm": 0.0,
      "humidity_avg": 48.2,
      "soil_moisture_avg": 0.0,
      "rain_mult": 0.0,
      "soil_mult": 0.95,
      "humidity_mult": 1.024,
      "raw_dynamic_score": 0.0,
      "dynamic_level": "None"
    },
    {
      "id": "177",
      "country": "",
      "name": "Luau",
      "latitude": -10.70727,
      "longitude": 22.22466,
      "base_risk": 8.5,
      "rain_6h_mm": 0.0,
      "humidity_avg": 60.8,
      "soil_moisture_avg": 0.0,
      "rain_mult": 0.0,
      "soil_mult": 0.95,
      "humidity_mult": 1.03,
      "raw_dynamic_score": 0.0,
      "dynamic_level": "None"
    },
    {
      "id": "178",
      "country": "",
      "name": "Cazombo",
      "latitude": -11.89914,
      "longitude": 22.90216,
      "base_risk": 8.5,
      "rain_6h_mm": 0.0,
      "humidity_avg": 61.0,
      "soil_moisture_avg": 0.0,
      "rain_mult": 0.0,
      "soil_mult": 0.95,
      "humidity_mult": 1.03,
      "raw_dynamic_score": 0.0,
      "dynamic_level": "None"
    },
    {
      "id": "179",
      "country": "",
      "name": "Nzagi",
      "latitude": -8.38549,
      "longitude": 15.30126,
      "base_risk": 8.5,
      "rain_6h_mm": 6.8,
      "humidity_avg": 83.8,
      "soil_moisture_avg": 0.0,
      "rain_mult": 0.068,
      "soil_mult": 0.95,
      "humidity_mult": 1.042,
      "raw_dynamic_score": 0.572,
      "dynamic_level": "Low"
    },
    {
      "id": "180",
      "country": "",
      "name": "Uíge",
      "latitude": -7.60874,
      "longitude": 15.06131,
      "base_risk": 8.5,
      "rain_6h_mm": 5.5,
      "humidity_avg": 88.0,
      "soil_moisture_avg": 0.0,
      "rain_mult": 0.055,
      "soil_mult": 0.95,
      "humidity_mult": 1.044,
      "raw_dynamic_score": 0.464,
      "dynamic_level": "Low"
    },
    {
      "id": "181",
      "country": "",
      "name": "Tombôco",
      "latitude": -6.80517,
      "longitude": 13.33017,
      "base_risk": 8.5,
      "rain_6h_mm": 2.6,
      "humidity_avg": 88.7,
      "soil_moisture_avg": 0.0,
      "rain_mult": 0.026,
      "soil_mult": 0.95,
      "humidity_mult": 1.044,
      "raw_dynamic_score": 0.219,
      "dynamic_level": "Low"
    },
    {
      "id": "182",
      "country": "",
      "name": "Soyo",
      "latitude": -6.1349,
      "longitude": 12.36894,
      "base_risk": 8.5,
      "rain_6h_mm": 0.0,
      "humidity_avg": 85.0,
      "soil_moisture_avg": 0.0,
      "rain_mult": 0.0,
      "soil_mult": 0.95,
      "humidity_mult": 1.042,
      "raw_dynamic_score": 0.0,
      "dynamic_level": "None"
    },
    {
      "id": "183",
      "country": "",
      "name": "Songo",
      "latitude": -7.35207,
      "longitude": 14.84629,
      "base_risk": 8.5,
      "rain_6h_mm": 3.3,
      "humidity_avg": 85.3,
      "soil_moisture_avg": 0.0,
      "rain_mult": 0.033,
      "soil_mult": 0.95,
      "humidity_mult": 1.043,
      "raw_dynamic_score": 0.278,
      "dynamic_level": "Low"
    },
    {
      "id": "184",
      "country": "",
      "name": "Sanza Pombo",
      "latitude": -7.31473,
      "longitude": 16.0024,
      "base_risk": 8.5,
      "rain_6h_mm": 1.6,
      "humidity_avg": 83.3,
      "soil_moisture_avg": 0.0,
      "rain_mult": 0.016,
      "soil_mult": 0.95,
      "humidity_mult": 1.042,
      "raw_dynamic_score": 0.135,
      "dynamic_level": "Low"
    },
    {
      "id": "185",
      "country": "",
      "name": "N'zeto",
      "latitude": -7.228,
      "longitude": 12.86956,
      "base_risk": 8.5,
      "rain_6h_mm": 0.0,
      "humidity_avg": 90.7,
      "soil_moisture_avg": 0.0,
      "rain_mult": 0.0,
      "soil_mult": 0.95,
      "humidity_mult": 1.045,
      "raw_dynamic_score": 0.0,
      "dynamic_level": "None"
    },
    {
      "id": "186",
      "country": "",
      "name": "Negage",
      "latitude": -7.75938,
      "longitude": 15.2722,
      "base_risk": 8.5,
      "rain_6h_mm": 5.5,
      "humidity_avg": 92.2,
      "soil_moisture_avg": 0.0,
      "rain_mult": 0.055,
      "soil_mult": 0.95,
      "humidity_mult": 1.046,
      "raw_dynamic_score": 0.465,
      "dynamic_level": "Low"
    },
    {
      "id": "187",
      "country": "",
      "name": "N'dalatando",
      "latitude": -9.29782,
      "longitude": 14.91162,
      "base_risk": 8.5,
      "rain_6h_mm": 0.9,
      "humidity_avg": 73.2,
      "soil_moisture_avg": 0.0,
      "rain_mult": 0.009,
      "soil_mult": 0.95,
      "humidity_mult": 1.037,
      "raw_dynamic_score": 0.075,
      "dynamic_level": "Low"
    },
    {
      "id": "188",
      "country": "",
      "name": "Mussende",
      "latitude": -10.5143,
      "longitude": 16.0199,
      "base_risk": 8.5,
      "rain_6h_mm": 17.2,
      "humidity_avg": 87.7,
      "soil_moisture_avg": 0.0,
      "rain_mult": 0.172,
      "soil_mult": 0.95,
      "humidity_mult": 1.044,
      "raw_dynamic_score": 1.45,
      "dynamic_level": "Low"
    },
    {
      "id": "189",
      "country": "",
      "name": "Mbanza Kongo",
      "latitude": -6.26667,
      "longitude": 14.23833,
      "base_risk": 8.5,
      "rain_6h_mm": 4.6,
      "humidity_avg": 88.8,
      "soil_moisture_avg": 0.0,
      "rain_mult": 0.046,
      "soil_mult": 0.95,
      "humidity_mult": 1.044,
      "raw_dynamic_score": 0.388,
      "dynamic_level": "Low"
    },
    {
      "id": "190",
      "country": "",
      "name": "Maquela do Zombo",
      "latitude": -6.05716,
      "longitude": 15.10971,
      "base_risk": 8.5,
      "rain_6h_mm": 1.2,
      "humidity_avg": 91.3,
      "soil_moisture_avg": 0.0,
      "rain_mult": 0.012,
      "soil_mult": 0.95,
      "humidity_mult": 1.046,
      "raw_dynamic_score": 0.101,
      "dynamic_level": "Low"
    },
    {
      "id": "191",
      "country": "",
      "name": "Malanje",
      "latitude": -9.54015,
      "longitude": 16.34096,
      "base_risk": 8.5,
      "rain_6h_mm": 2.5,
      "humidity_avg": 76.3,
      "soil_moisture_avg": 0.0,
      "rain_mult": 0.025,
      "soil_mult": 0.95,
      "humidity_mult": 1.038,
      "raw_dynamic_score": 0.21,
      "dynamic_level": "Low"
    },
    {
      "id": "192",
      "country": "",
      "name": "Lucala",
      "latitude": -9.27268,
      "longitude": 15.25206,
      "base_risk": 8.5,
      "rain_6h_mm": 1.0,
      "humidity_avg": 81.8,
      "soil_moisture_avg": 0.0,
      "rain_mult": 0.01,
      "soil_mult": 0.95,
      "humidity_mult": 1.041,
      "raw_dynamic_score": 0.084,
      "dynamic_level": "Low"
    },
    {
      "id": "193",
      "country": "",
      "name": "Lubalo",
      "latitude": -9.15445,
      "longitude": 19.28136,
      "base_risk": 8.5,
      "rain_6h_mm": 0.4,
      "humidity_avg": 73.0,
      "soil_moisture_avg": 0.0,
      "rain_mult": 0.004,
      "soil_mult": 0.95,
      "humidity_mult": 1.036,
      "raw_dynamic_score": 0.033,
      "dynamic_level": "Low"
    },
    {
      "id": "194",
      "country": "",
      "name": "Luanda",
      "latitude": -8.83682,
      "longitude": 13.23432,
      "base_risk": 8.5,
      "rain_6h_mm": 0.0,
      "humidity_avg": 78.0,
      "soil_moisture_avg": 0.0,
      "rain_mult": 0.0,
      "soil_mult": 0.95,
      "humidity_mult": 1.039,
      "raw_dynamic_score": 0.0,
      "dynamic_level": "None"
    },
    {
      "id": "195",
      "country": "",
      "name": "Cunda diá Baze",
      "latitude": -8.90769,
      "longitude": 17.05339,
      "base_risk": 8.5,
      "rain_6h_mm": 0.0,
      "humidity_avg": 70.0,
      "soil_moisture_avg": 0.0,
      "rain_mult": 0.0,
      "soil_mult": 0.95,
      "humidity_mult": 1.035,
      "raw_dynamic_score": 0.0,
      "dynamic_level": "None"
    },
    {
      "id": "196",
      "country": "",
      "name": "Golungo Alto",
      "latitude": -9.13333,
      "longitude": 14.76667,
      "base_risk": 8.5,
      "rain_6h_mm": 2.4,
      "humidity_avg": 70.7,
      "soil_moisture_avg": 0.0,
      "rain_mult": 0.024,
      "soil_mult": 0.95,
      "humidity_mult": 1.035,
      "raw_dynamic_score": 0.201,
      "dynamic_level": "Low"
    },
    {
      "id": "197",
      "country": "",
      "name": "Dondo",
      "latitude": -9.68456,
      "longitude": 14.42788,
      "base_risk": 8.5,
      "rain_6h_mm": 1.0,
      "humidity_avg": 58.2,
      "soil_moisture_avg": 0.0,
      "rain_mult": 0.01,
      "soil_mult": 0.95,
      "humidity_mult": 1.029,
      "raw_dynamic_score": 0.083,
      "dynamic_level": "Low"
    },
    {
      "id": "198",
      "country": "",
      "name": "Dondo",
      "latitude": -9.05,
      "longitude": 15.31667,
      "base_risk": 8.5,
      "rain_6h_mm": 4.0,
      "humidity_avg": 83.2,
      "soil_moisture_avg": 0.0,
      "rain_mult": 0.04,
      "soil_mult": 0.95,
      "humidity_mult": 1.042,
      "raw_dynamic_score": 0.336,
      "dynamic_level": "Low"
    },
    {
      "id": "199",
      "country": "",
      "name": "Cuímba",
      "latitude": -6.12085,
      "longitude": 14.62086,
      "base_risk": 8.5,
      "rain_6h_mm": 3.0,
      "humidity_avg": 90.0,
      "soil_moisture_avg": 0.0,
      "rain_mult": 0.03,
      "soil_mult": 0.95,
      "humidity_mult": 1.045,
      "raw_dynamic_score": 0.253,
      "dynamic_level": "Low"
    },
    {
      "id": "200",
      "country": "",
      "name": "Cuilo",
      "latitude": -8.23619,
      "longitude": 19.52566,
      "base_risk": 8.5,
      "rain_6h_mm": 0.7,
      "humidity_avg": 74.0,
      "soil_moisture_avg": 0.0,
      "rain_mult": 0.007,
      "soil_mult": 0.95,
      "humidity_mult": 1.037,
      "raw_dynamic_score": 0.059,
      "dynamic_level": "Low"
    },
    {
      "id": "201",
      "country": "",
      "name": "Cuango-Luzamba",
      "latitude": -9.14583,
      "longitude": 18.04453,
      "base_risk": 8.5,
      "rain_6h_mm": 0.1,
      "humidity_avg": 72.2,
      "soil_moisture_avg": 0.0,
      "rain_mult": 0.001,
      "soil_mult": 0.95,
      "humidity_mult": 1.036,
      "raw_dynamic_score": 0.008,
      "dynamic_level": "Low"
    },
    {
      "id": "202",
      "country": "",
      "name": "Cazombo",
      "latitude": -8.73204,
      "longitude": 15.37124,
      "base_risk": 8.5,
      "rain_6h_mm": 4.7,
      "humidity_avg": 86.7,
      "soil_moisture_avg": 0.0,
      "rain_mult": 0.047,
      "soil_mult": 0.95,
      "humidity_mult": 1.043,
      "raw_dynamic_score": 0.396,
      "dynamic_level": "Low"
    },
    {
      "id": "203",
      "country": "",
      "name": "Caxito",
      "latitude": -8.57848,
      "longitude": 13.66425,
      "base_risk": 8.5,
      "rain_6h_mm": 0.0,
      "humidity_avg": 74.3,
      "soil_moisture_avg": 0.0,
      "rain_mult": 0.0,
      "soil_mult": 0.95,
      "humidity_mult": 1.037,
      "raw_dynamic_score": 0.0,
      "dynamic_level": "None"
    },
    {
      "id": "204",
      "country": "",
      "name": "Cangandala",
      "latitude": -9.78333,
      "longitude": 16.43333,
      "base_risk": 8.5,
      "rain_6h_mm": 3.8,
      "humidity_avg": 79.2,
      "soil_moisture_avg": 0.0,
      "rain_mult": 0.038,
      "soil_mult": 0.95,
      "humidity_mult": 1.04,
      "raw_dynamic_score": 0.319,
      "dynamic_level": "Low"
    },
    {
      "id": "205",
      "country": "",
      "name": "Camabatela",
      "latitude": -8.18812,
      "longitude": 15.37495,
      "base_risk": 8.5,
      "rain_6h_mm": 4.3,
      "humidity_avg": 86.8,
      "soil_moisture_avg": 0.0,
      "rain_mult": 0.043,
      "soil_mult": 0.95,
      "humidity_mult": 1.043,
      "raw_dynamic_score": 0.362,
      "dynamic_level": "Low"
    },
    {
      "id": "206",
      "country": "",
      "name": "Cacuso",
      "latitude": -9.42102,
      "longitude": 15.74668,
      "base_risk": 8.5,
      "rain_6h_mm": 1.7,
      "humidity_avg": 84.2,
      "soil_moisture_avg": 0.0,
      "rain_mult": 0.017,
      "soil_mult": 0.95,
      "humidity_mult": 1.042,
      "raw_dynamic_score": 0.143,
      "dynamic_level": "Low"
    },
    {
      "id": "207",
      "country": "",
      "name": "Cabinda",
      "latitude": -5.56198,
      "longitude": 12.19476,
      "base_risk": 8.5,
      "rain_6h_mm": 0.0,
      "humidity_avg": 89.7,
      "soil_moisture_avg": 0.0,
      "rain_mult": 0.0,
      "soil_mult": 0.95,
      "humidity_mult": 1.045,
      "raw_dynamic_score": 0.0,
      "dynamic_level": "None"
    },
    {
      "id": "208",
      "country": "",
      "name": "Buco Zau",
      "latitude": -4.76667,
      "longitude": 12.55,
      "base_risk": 8.5,
      "rain_6h_mm": 0.0,
      "humidity_avg": 80.5,
      "soil_moisture_avg": 0.0,
      "rain_mult": 0.0,
      "soil_mult": 0.95,
      "humidity_mult": 1.04,
      "raw_dynamic_score": 0.0,
      "dynamic_level": "None"
    },
    {
      "id": "209",
      "country": "",
      "name": "Belize",
      "latitude": -4.65,
      "longitude": 12.76667,
      "base_risk": 8.5,
      "rain_6h_mm": 1.9,
      "humidity_avg": 81.2,
      "soil_moisture_avg": 0.0,
      "rain_mult": 0.019,
      "soil_mult": 0.95,
      "humidity_mult": 1.041,
      "raw_dynamic_score": 0.16,
      "dynamic_level": "Low"
    },
    {
      "id": "210",
      "country": "",
      "name": "Barra do Dande",
      "latitude": -8.47175,
      "longitude": 13.37011,
      "base_risk": 8.5,
      "rain_6h_mm": 0.0,
      "humidity_avg": 84.2,
      "soil_moisture_avg": 0.0,
      "rain_mult": 0.0,
      "soil_mult": 0.95,
      "humidity_mult": 1.042,
      "raw_dynamic_score": 0.0,
      "dynamic_level": "None"
    },
    {
      "id": "211",
      "country": "",
      "name": "Bailundo",
      "latitude": -9.57499,
      "longitude": 15.99442,
      "base_risk": 8.5,
      "rain_6h_mm": 0.9,
      "humidity_avg": 82.2,
      "soil_moisture_avg": 0.0,
      "rain_mult": 0.009,
      "soil_mult": 0.95,
      "humidity_mult": 1.041,
      "raw_dynamic_score": 0.076,
      "dynamic_level": "Low"
    },
    {
      "id": "212",
      "country": "",
      "name": "Gama",
      "latitude": -8.5675,
      "longitude": 13.47639,
      "base_risk": 8.5,
      "rain_6h_mm": 0.0,
      "humidity_avg": 80.2,
      "soil_moisture_avg": 0.0,
      "rain_mult": 0.0,
      "soil_mult": 0.95,
      "humidity_mult": 1.04,
      "raw_dynamic_score": 0.0,
      "dynamic_level": "None"
    },
    {
      "id": "213",
      "country": "",
      "name": "Xangongo",
      "latitude": -16.7444,
      "longitude": 14.97494,
      "base_risk": 8.5,
      "rain_6h_mm": 0.0,
      "humidity_avg": 16.8,
      "soil_moisture_avg": 0.0,
      "rain_mult": 0.0,
      "soil_mult": 0.95,
      "humidity_mult": 1.008,
      "raw_dynamic_score": 0.0,
      "dynamic_level": "None"
    },
    {
      "id": "214",
      "country": "",
      "name": "Alto Hama",
      "latitude": -12.23333,
      "longitude": 15.55,
      "base_risk": 8.5,
      "rain_6h_mm": 5.2,
      "humidity_avg": 76.5,
      "soil_moisture_avg": 0.0,
      "rain_mult": 0.052,
      "soil_mult": 0.95,
      "humidity_mult": 1.038,
      "raw_dynamic_score": 0.436,
      "dynamic_level": "Low"
    },
    {
      "id": "215",
      "country": "",
      "name": "Virei",
      "latitude": -15.727,
      "longitude": 12.94961,
      "base_risk": 8.5,
      "rain_6h_mm": 0.0,
      "humidity_avg": 51.5,
      "soil_moisture_avg": 0.0,
      "rain_mult": 0.0,
      "soil_mult": 0.95,
      "humidity_mult": 1.026,
      "raw_dynamic_score": 0.0,
      "dynamic_level": "None"
    },
    {
      "id": "216",
      "country": "",
      "name": "Ucuma",
      "latitude": -12.96121,
      "longitude": 15.05958,
      "base_risk": 8.5,
      "rain_6h_mm": 7.1,
      "humidity_avg": 83.8,
      "soil_moisture_avg": 0.0,
      "rain_mult": 0.071,
      "soil_mult": 0.95,
      "humidity_mult": 1.042,
      "raw_dynamic_score": 0.597,
      "dynamic_level": "Low"
    },
    {
      "id": "217",
      "country": "",
      "name": "Ucu Seles",
      "latitude": -11.41237,
      "longitude": 14.30663,
      "base_risk": 8.5,
      "rain_6h_mm": 0.3,
      "humidity_avg": 83.5,
      "soil_moisture_avg": 0.0,
      "rain_mult": 0.003,
      "soil_mult": 0.95,
      "humidity_mult": 1.042,
      "raw_dynamic_score": 0.025,
      "dynamic_level": "Low"
    },
    {
      "id": "218",
      "country": "",
      "name": "Tômbua",
      "latitude": -15.80394,
      "longitude": 11.84485,
      "base_risk": 8.5,
      "rain_6h_mm": 0.0,
      "humidity_avg": 80.7,
      "soil_moisture_avg": 0.0,
      "rain_mult": 0.0,
      "soil_mult": 0.95,
      "humidity_mult": 1.04,
      "raw_dynamic_score": 0.0,
      "dynamic_level": "None"
    },
    {
      "id": "219",
      "country": "",
      "name": "Sumbe",
      "latitude": -11.20605,
      "longitude": 13.84371,
      "base_risk": 8.5,
      "rain_6h_mm": 0.0,
      "humidity_avg": 81.7,
      "soil_moisture_avg": 0.0,
      "rain_mult": 0.0,
      "soil_mult": 0.95,
      "humidity_mult": 1.041,
      "raw_dynamic_score": 0.0,
      "dynamic_level": "None"
    },
    {
      "id": "220",
      "country": "",
      "name": "Quipungo",
      "latitude": -14.81909,
      "longitude": 14.53504,
      "base_risk": 8.5,
      "rain_6h_mm": 0.2,
      "humidity_avg": 33.7,
      "soil_moisture_avg": 0.0,
      "rain_mult": 0.002,
      "soil_mult": 0.95,
      "humidity_mult": 1.017,
      "raw_dynamic_score": 0.016,
      "dynamic_level": "Low"
    },
    {
      "id": "221",
      "country": "",
      "name": "Quibala",
      "latitude": -10.73366,
      "longitude": 14.97995,
      "base_risk": 8.5,
      "rain_6h_mm": 2.5,
      "humidity_avg": 88.3,
      "soil_moisture_avg": 0.0,
      "rain_mult": 0.025,
      "soil_mult": 0.95,
      "humidity_mult": 1.044,
      "raw_dynamic_score": 0.211,
      "dynamic_level": "Low"
    },
    {
      "id": "222",
      "country": "",
      "name": "Porto Amboim",
      "latitude": -10.73251,
      "longitude": 13.76844,
      "base_risk": 8.5,
      "rain_6h_mm": 0.0,
      "humidity_avg": 80.5,
      "soil_moisture_avg": 0.0,
      "rain_mult": 0.0,
      "soil_mult": 0.95,
      "humidity_mult": 1.04,
      "raw_dynamic_score": 0.0,
      "dynamic_level": "None"
    },
    {
      "id": "223",
      "country": "",
      "name": "Ondjiva",
      "latitude": -17.06667,
      "longitude": 15.73333,
      "base_risk": 8.5,
      "rain_6h_mm": 0.0,
      "humidity_avg": 13.7,
      "soil_moisture_avg": 0.0,
      "rain_mult": 0.0,
      "soil_mult": 0.95,
      "humidity_mult": 1.007,
      "raw_dynamic_score": 0.0,
      "dynamic_level": "None"
    },
    {
      "id": "224",
      "country": "",
      "name": "Nharêa",
      "latitude": -11.47512,
      "longitude": 16.96496,
      "base_risk": 8.5,
      "rain_6h_mm": 8.2,
      "humidity_avg": 78.7,
      "soil_moisture_avg": 0.0,
      "rain_mult": 0.082,
      "soil_mult": 0.95,
      "humidity_mult": 1.039,
      "raw_dynamic_score": 0.688,
      "dynamic_level": "Low"
    },
    {
      "id": "225",
      "country": "",
      "name": "Mossamedes",
      "latitude": -15.19611,
      "longitude": 12.15222,
      "base_risk": 8.5,
      "rain_6h_mm": 0.0,
      "humidity_avg": 81.3,
      "soil_moisture_avg": 0.0,
      "rain_mult": 0.0,
      "soil_mult": 0.95,
      "humidity_mult": 1.041,
      "raw_dynamic_score": 0.0,
      "dynamic_level": "None"
    },
    {
      "id": "226",
      "country": "",
      "name": "Mungo",
      "latitude": -11.83268,
      "longitude": 16.23613,
      "base_risk": 8.5,
      "rain_6h_mm": 9.8,
      "humidity_avg": 68.5,
      "soil_moisture_avg": 0.0,
      "rain_mult": 0.098,
      "soil_mult": 0.95,
      "humidity_mult": 1.034,
      "raw_dynamic_score": 0.818,
      "dynamic_level": "Low"
    },
    {
      "id": "227",
      "country": "",
      "name": "Menongue",
      "latitude": -14.6585,
      "longitude": 17.69099,
      "base_risk": 8.5,
      "rain_6h_mm": 0.0,
      "humidity_avg": 41.2,
      "soil_moisture_avg": 0.0,
      "rain_mult": 0.0,
      "soil_mult": 0.95,
      "humidity_mult": 1.021,
      "raw_dynamic_score": 0.0,
      "dynamic_level": "None"
    },
    {
      "id": "228",
      "country": "",
      "name": "Matala",
      "latitude": -14.73272,
      "longitude": 15.03479,
      "base_risk": 8.5,
      "rain_6h_mm": 0.2,
      "humidity_avg": 36.0,
      "soil_moisture_avg": 0.0,
      "rain_mult": 0.002,
      "soil_mult": 0.95,
      "humidity_mult": 1.018,
      "raw_dynamic_score": 0.016,
      "dynamic_level": "Low"
    },
    {
      "id": "229",
      "country": "",
      "name": "Luquembo",
      "latitude": -10.73912,
      "longitude": 17.71766,
      "base_risk": 8.5,
      "rain_6h_mm": 1.6,
      "humidity_avg": 69.8,
      "soil_moisture_avg": 0.0,
      "rain_mult": 0.016,
      "soil_mult": 0.95,
      "humidity_mult": 1.035,
      "raw_dynamic_score": 0.134,
      "dynamic_level": "Low"
    },
    {
      "id": "230",
      "country": "",
      "name": "Luena",
      "latitude": -11.78333,
      "longitude": 19.91667,
      "base_risk": 8.5,
      "rain_6h_mm": 0.0,
      "humidity_avg": 51.8,
      "soil_moisture_avg": 0.0,
      "rain_mult": 0.0,
      "soil_mult": 0.95,
      "humidity_mult": 1.026,
      "raw_dynamic_score": 0.0,
      "dynamic_level": "None"
    },
    {
      "id": "231",
      "country": "",
      "name": "Lubango",
      "latitude": -14.91717,
      "longitude": 13.4925,
      "base_risk": 8.5,
      "rain_6h_mm": 0.3,
      "humidity_avg": 51.5,
      "soil_moisture_avg": 0.0,
      "rain_mult": 0.003,
      "soil_mult": 0.95,
      "humidity_mult": 1.026,
      "raw_dynamic_score": 0.025,
      "dynamic_level": "Low"
    },
    {
      "id": "232",
      "country": "",
      "name": "Longonjo",
      "latitude": -12.90795,
      "longitude": 15.24845,
      "base_risk": 8.5,
      "rain_6h_mm": 5.9,
      "humidity_avg": 79.7,
      "soil_moisture_avg": 0.0,
      "rain_mult": 0.059,
      "soil_mult": 0.95,
      "humidity_mult": 1.04,
      "raw_dynamic_score": 0.495,
      "dynamic_level": "Low"
    },
    {
      "id": "233",
      "country": "",
      "name": "Londuimbali",
      "latitude": -12.23712,
      "longitude": 15.31697,
      "base_risk": 8.5,
      "rain_6h_mm": 6.8,
      "humidity_avg": 82.8,
      "soil_moisture_avg": 0.0,
      "rain_mult": 0.068,
      "soil_mult": 0.95,
      "humidity_mult": 1.041,
      "raw_dynamic_score": 0.572,
      "dynamic_level": "Low"
    },
    {
      "id": "234",
      "country": "",
      "name": "Lobito",
      "latitude": -12.3644,
      "longitude": 13.53601,
      "base_risk": 8.5,
      "rain_6h_mm": 0.0,
      "humidity_avg": 80.7,
      "soil_moisture_avg": 0.0,
      "rain_mult": 0.0,
      "soil_mult": 0.95,
      "humidity_mult": 1.04,
      "raw_dynamic_score": 0.0,
      "dynamic_level": "None"
    },
    {
      "id": "235",
      "country": "",
      "name": "Cuíto",
      "latitude": -12.38333,
      "longitude": 16.93333,
      "base_risk": 8.5,
      "rain_6h_mm": 2.1,
      "humidity_avg": 60.8,
      "soil_moisture_avg": 0.0,
      "rain_mult": 0.021,
      "soil_mult": 0.95,
      "humidity_mult": 1.03,
      "raw_dynamic_score": 0.175,
      "dynamic_level": "Low"
    },
    {
      "id": "236",
      "country": "",
      "name": "Catchiungo",
      "latitude": -12.56598,
      "longitude": 16.22589,
      "base_risk": 8.5,
      "rain_6h_mm": 6.4,
      "humidity_avg": 74.8,
      "soil_moisture_avg": 0.0,
      "rain_mult": 0.064,
      "soil_mult": 0.95,
      "humidity_mult": 1.037,
      "raw_dynamic_score": 0.536,
      "dynamic_level": "Low"
    },
    {
      "id": "237",
      "country": "",
      "name": "Humbe",
      "latitude": -16.6864,
      "longitude": 14.90317,
      "base_risk": 8.5,
      "rain_6h_mm": 0.0,
      "humidity_avg": 18.0,
      "soil_moisture_avg": 0.0,
      "rain_mult": 0.0,
      "soil_mult": 0.95,
      "humidity_mult": 1.009,
      "raw_dynamic_score": 0.0,
      "dynamic_level": "None"
    },
    {
      "id": "238",
      "country": "",
      "name": "Huambo",
      "latitude": -12.77611,
      "longitude": 15.73917,
      "base_risk": 8.5,
      "rain_6h_mm": 5.6,
      "humidity_avg": 74.8,
      "soil_moisture_avg": 0.0,
      "rain_mult": 0.056,
      "soil_mult": 0.95,
      "humidity_mult": 1.037,
      "raw_dynamic_score": 0.469,
      "dynamic_level": "Low"
    },
    {
      "id": "239",
      "country": "",
      "name": "Ganda",
      "latitude": -13.01592,
      "longitude": 14.63502,
      "base_risk": 8.5,
      "rain_6h_mm": 0.1,
      "humidity_avg": 77.2,
      "soil_moisture_avg": 0.0,
      "rain_mult": 0.001,
      "soil_mult": 0.95,
      "humidity_mult": 1.039,
      "raw_dynamic_score": 0.008,
      "dynamic_level": "Low"
    },
    {
      "id": "240",
      "country": "",
      "name": "Gabela",
      "latitude": -10.85147,
      "longitude": 14.37993,
      "base_risk": 8.5,
      "rain_6h_mm": 1.3,
      "humidity_avg": 89.5,
      "soil_moisture_avg": 0.0,
      "rain_mult": 0.013,
      "soil_mult": 0.95,
      "humidity_mult": 1.045,
      "raw_dynamic_score": 0.11,
      "dynamic_level": "Low"
    },
    {
      "id": "241",
      "country": "",
      "name": "Dombe Grande",
      "latitude": -12.95167,
      "longitude": 13.1025,
      "base_risk": 8.5,
      "rain_6h_mm": 0.0,
      "humidity_avg": 76.7,
      "soil_moisture_avg": 0.0,
      "rain_mult": 0.0,
      "soil_mult": 0.95,
      "humidity_mult": 1.038,
      "raw_dynamic_score": 0.0,
      "dynamic_level": "None"
    },
    {
      "id": "242",
      "country": "",
      "name": "Cuemba",
      "latitude": -12.15,
      "longitude": 18.08333,
      "base_risk": 8.5,
      "rain_6h_mm": 1.3,
      "humidity_avg": 68.2,
      "soil_moisture_avg": 0.0,
      "rain_mult": 0.013,
      "soil_mult": 0.95,
      "humidity_mult": 1.034,
      "raw_dynamic_score": 0.109,
      "dynamic_level": "Low"
    },
    {
      "id": "243",
      "country": "",
      "name": "Cubal",
      "latitude": -13.03865,
      "longitude": 14.2455,
      "base_risk": 8.5,
      "rain_6h_mm": 0.0,
      "humidity_avg": 70.2,
      "soil_moisture_avg": 0.0,
      "rain_mult": 0.0,
      "soil_mult": 0.95,
      "humidity_mult": 1.035,
      "raw_dynamic_score": 0.0,
      "dynamic_level": "None"
    },
    {
      "id": "244",
      "country": "",
      "name": "Conda",
      "latitude": -11.10862,
      "longitude": 14.33621,
      "base_risk": 8.5,
      "rain_6h_mm": 0.3,
      "humidity_avg": 83.5,
      "soil_moisture_avg": 0.0,
      "rain_mult": 0.003,
      "soil_mult": 0.95,
      "humidity_mult": 1.042,
      "raw_dynamic_score": 0.025,
      "dynamic_level": "Low"
    },
    {
      "id": "245",
      "country": "",
      "name": "Chitembo",
      "latitude": -13.55,
      "longitude": 16.63333,
      "base_risk": 8.5,
      "rain_6h_mm": 0.4,
      "humidity_avg": 59.3,
      "soil_moisture_avg": 0.0,
      "rain_mult": 0.004,
      "soil_mult": 0.95,
      "humidity_mult": 1.03,
      "raw_dynamic_score": 0.033,
      "dynamic_level": "Low"
    },
    {
      "id": "246",
      "country": "",
      "name": "Chinguar",
      "latitude": -12.55708,
      "longitude": 16.33805,
      "base_risk": 8.5,
      "rain_6h_mm": 4.8,
      "humidity_avg": 74.2,
      "soil_moisture_avg": 0.0,
      "rain_mult": 0.048,
      "soil_mult": 0.95,
      "humidity_mult": 1.037,
      "raw_dynamic_score": 0.402,
      "dynamic_level": "Low"
    },
    {
      "id": "247",
      "country": "",
      "name": "Cela",
      "latitude": -11.42173,
      "longitude": 15.12345,
      "base_risk": 8.5,
      "rain_6h_mm": 1.8,
      "humidity_avg": 86.7,
      "soil_moisture_avg": 0.0,
      "rain_mult": 0.018,
      "soil_mult": 0.95,
      "humidity_mult": 1.043,
      "raw_dynamic_score": 0.152,
      "dynamic_level": "Low"
    },
    {
      "id": "248",
      "country": "",
      "name": "Catumbela",
      "latitude": -12.43002,
      "longitude": 13.54677,
      "base_risk": 8.5,
      "rain_6h_mm": 0.0,
      "humidity_avg": 80.7,
      "soil_moisture_avg": 0.0,
      "rain_mult": 0.0,
      "soil_mult": 0.95,
      "humidity_mult": 1.04,
      "raw_dynamic_score": 0.0,
      "dynamic_level": "None"
    },
    {
      "id": "249",
      "country": "",
      "name": "Catabola",
      "latitude": -12.15,
      "longitude": 17.28333,
      "base_risk": 8.5,
      "rain_6h_mm": 2.1,
      "humidity_avg": 63.3,
      "soil_moisture_avg": 0.0,
      "rain_mult": 0.021,
      "soil_mult": 0.95,
      "humidity_mult": 1.032,
      "raw_dynamic_score": 0.175,
      "dynamic_level": "Low"
    },
    {
      "id": "250",
      "country": "",
      "name": "Capunda",
      "latitude": -11.13333,
      "longitude": 14.46667,
      "base_risk": 8.5,
      "rain_6h_mm": 1.6,
      "humidity_avg": 91.3,
      "soil_moisture_avg": 0.0,
      "rain_mult": 0.016,
      "soil_mult": 0.95,
      "humidity_mult": 1.046,
      "raw_dynamic_score": 0.135,
      "dynamic_level": "Low"
    },
    {
      "id": "251",
      "country": "",
      "name": "Camucuio",
      "latitude": -14.11667,
      "longitude": 13.25,
      "base_risk": 8.5,
      "rain_6h_mm": 0.0,
      "humidity_avg": 57.0,
      "soil_moisture_avg": 0.0,
      "rain_mult": 0.0,
      "soil_mult": 0.95,
      "humidity_mult": 1.028,
      "raw_dynamic_score": 0.0,
      "dynamic_level": "None"
    },
    {
      "id": "252",
      "country": "",
      "name": "Cambundi Catembo",
      "latitude": -10.07531,
      "longitude": 17.55058,
      "base_risk": 8.5,
      "rain_6h_mm": 0.0,
      "humidity_avg": 65.3,
      "soil_moisture_avg": 0.0,
      "rain_mult": 0.0,
      "soil_mult": 0.95,
      "humidity_mult": 1.033,
      "raw_dynamic_score": 0.0,
      "dynamic_level": "None"
    },
    {
      "id": "253",
      "country": "",
      "name": "Camacupa",
      "latitude": -12.01667,
      "longitude": 17.48333,
      "base_risk": 8.5,
      "rain_6h_mm": 1.2,
      "humidity_avg": 62.3,
      "soil_moisture_avg": 0.0,
      "rain_mult": 0.012,
      "soil_mult": 0.95,
      "humidity_mult": 1.031,
      "raw_dynamic_score": 0.1,
      "dynamic_level": "Low"
    },
    {
      "id": "254",
      "country": "",
      "name": "Caluquembe",
      "latitude": -13.86667,
      "longitude": 14.43333,
      "base_risk": 8.5,
      "rain_6h_mm": 0.2,
      "humidity_avg": 62.2,
      "soil_moisture_avg": 0.0,
      "rain_mult": 0.002,
      "soil_mult": 0.95,
      "humidity_mult": 1.031,
      "raw_dynamic_score": 0.017,
      "dynamic_level": "Low"
    },
    {
      "id": "255",
      "country": "",
      "name": "Calulo",
      "latitude": -10.00055,
      "longitude": 14.89519,
      "base_risk": 8.5,
      "rain_6h_mm": 0.5,
      "humidity_avg": 76.7,
      "soil_moisture_avg": 0.0,
      "rain_mult": 0.005,
      "soil_mult": 0.95,
      "humidity_mult": 1.038,
      "raw_dynamic_score": 0.042,
      "dynamic_level": "Low"
    },
    {
      "id": "256",
      "country": "",
      "name": "Caála",
      "latitude": -12.8525,
      "longitude": 15.56056,
      "base_risk": 8.5,
      "rain_6h_mm": 2.9,
      "humidity_avg": 72.3,
      "soil_moisture_avg": 0.0,
      "rain_mult": 0.029,
      "soil_mult": 0.95,
      "humidity_mult": 1.036,
      "raw_dynamic_score": 0.243,
      "dynamic_level": "Low"
    },
    {
      "id": "257",
      "country": "",
      "name": "Bocoio",
      "latitude": -12.47017,
      "longitude": 14.13688,
      "base_risk": 8.5,
      "rain_6h_mm": 0.0,
      "humidity_avg": 85.5,
      "soil_moisture_avg": 0.0,
      "rain_mult": 0.0,
      "soil_mult": 0.95,
      "humidity_mult": 1.043,
      "raw_dynamic_score": 0.0,
      "dynamic_level": "None"
    },
    {
      "id": "258",
      "country": "",
      "name": "Benguela",
      "latitude": -12.57674,
      "longitude": 13.40268,
      "base_risk": 8.5,
      "rain_6h_mm": 0.0,
      "humidity_avg": 71.8,
      "soil_moisture_avg": 0.0,
      "rain_mult": 0.0,
      "soil_mult": 0.95,
      "humidity_mult": 1.036,
      "raw_dynamic_score": 0.0,
      "dynamic_level": "None"
    },
    {
      "id": "259",
      "country": "",
      "name": "Balombo",
      "latitude": -12.35426,
      "longitude": 14.77232,
      "base_risk": 8.5,
      "rain_6h_mm": 4.0,
      "humidity_avg": 86.3,
      "soil_moisture_avg": 0.0,
      "rain_mult": 0.04,
      "soil_mult": 0.95,
      "humidity_mult": 1.043,
      "raw_dynamic_score": 0.337,
      "dynamic_level": "Low"
    },