{
  "7.4698,80.6217": {
    "country": "",
    "name": "Matale",
    "risk_level": "Medium",
    "latitude": 7.4698,
    "longitude": 80.6217,
    "rain_mm": 79.3,
    "humidity": 96.8,
    "soil_moisture": 0.0,
    "raw_dynamic_score": 6.714,
    "last_updated": "2025-11-27T04:16:29.181423Z"
  },
  "8.7514,80.4971": {
    "country": "",
    "name": "Vavuniya",
    "risk_level": "Medium",
    "latitude": 8.7514,
    "longitude": 80.4971,
    "rain_mm": 84.2,
    "humidity": 96.0,
    "soil_moisture": 0.0,
    "raw_dynamic_score": 7.126,
    "last_updated": "2025-11-28T10:17:48.252537Z"
  },
  "9.8167,80.1667": {
    "country": "",
    "name": "Valvedditturai",
    "risk_level": "Medium",
    "latitude": 9.81667,
    "longitude": 80.16667,
    "rain_mm": 67.4,
    "humidity": 92.8,
    "soil_moisture": 0.0,
    "raw_dynamic_score": 5.695,
    "last_updated": "2025-11-28T10:18:18.486231Z"
  },
  "8.0362,79.8283": {
    "country": "",
    "name": "Puttalam",
    "risk_level": "Medium",
    "latitude": 8.0362,
    "longitude": 79.8283,
    "rain_mm": 68.7,
    "humidity": 91.2,
    "soil_moisture": 0.0,
    "raw_dynamic_score": 5.8,
    "last_updated": "2025-11-28T10:19:49.261029Z"
  },
  "9.6684,80.0074": {
    "country": "",
    "name": "Jaffna",
    "risk_level": "Medium",
    "latitude": 9.66845,
    "longitude": 80.00742,
    "rain_mm": 67.4,
    "humidity": 92.8,
    "soil_moisture": 0.0,
    "raw_dynamic_score": 5.695,
    "last_updated": "2025-11-28T10:21:20.038864Z"
  },
  "10.4236,79.3195": {
    "country": "",
    "name": "Pattukkottai",
    "risk_level": "Medium",
    "latitude": 10.42358,
    "longitude": 79.31949,
    "rain_mm": 63.5,
    "humidity": 92.8,
    "soil_moisture": 0.0,
    "raw_dynamic_score": 5.366,
    "last_updated": "2025-11-29T07:32:13.497378Z"
  },
  "11.2372,79.7358": {
    "country": "",
    "name": "Sīrkāzhi",
    "risk_level": "Medium",
    "latitude": 11.23725,
    "longitude": 79.73585,
    "rain_mm": 100.5,
    "humidity": 96.3,
    "soil_moisture": 0.0,
    "raw_dynamic_score": 8.506,
    "last_updated": "2025-11-29T19:30:05.445096Z"
  },
  "-30.7107,-62.0071": {
    "country": "",
    "name": "Morteros",
    "risk_level": "Medium",
    "latitude": -30.71066,
    "longitude": -62.00714,
    "rain_mm": 65.7,
    "humidity": 94.2,
    "soil_moisture": 0.0,
    "raw_dynamic_score": 5.555,
    "last_updated": "2025-11-30T04:28:39.253864Z"
  },
  "-30.9448,-61.5597": {
    "country": "",
    "name": "Sunchales",
    "risk_level": "Medium",
    "latitude": -30.94478,
    "longitude": -61.5597,
    "rain_mm": 111.2,
    "humidity": 93.7,
    "soil_moisture": 0.0,
    "raw_dynamic_score": 9.4,
    "last_updated": "2025-11-30T07:32:00.758275Z"
  },
  "-31.2528,-61.4908": {
    "country": "",
    "name": "Rafaela",
    "risk_level": "Medium",
    "latitude": -31.25285,
    "longitude": -61.49078,
    "rain_mm": 59.9,
    "humidity": 93.3,
    "soil_moisture": 0.0,
    "raw_dynamic_score": 5.063,
    "last_updated": "2025-11-30T07:32:30.951448Z"
  },
  "0.3276,-78.2191": {
    "country": "",
    "name": "Atuntaqui",
    "risk_level": "Low",
    "latitude": 0.32759,
    "longitude": -78.21908,
    "rain_mm": 34.6,
    "humidity": 94.3,
    "soil_moisture": 0.0,
    "raw_dynamic_score": 2.926,
    "last_updated": "2025-11-30T10:14:17.185225Z",
    "resolved": true
  },
  "-30.7899,-60.5928": {
    "country": "",
    "name": "San Justo",
    "risk_level": "Medium",
    "latitude": -30.78991,
    "longitude": -60.59276,
    "rain_mm": 85.2,
    "humidity": 93.2,
    "soil_moisture": 0.0,
    "raw_dynamic_score": 7.2,
    "last_updated": "2025-11-30T10:13:47.006253Z"
  },
  "29.5572,-95.8086": {
    "country": "",
    "name": "Rosenberg",
    "risk_level": "Medium",
    "latitude": 29.55718,
    "longitude": -95.80856,
    "rain_mm": 64.9,
    "humidity": 93.0,
    "soil_moisture": 0.0,
    "raw_dynamic_score": 5.484,
    "last_updated": "2025-11-30T10:14:47.360581Z"
  }
}