{
  "3.3285,99.1625": {
    "country": "",
    "name": "Tebingtinggi",
    "risk_level": "Medium",
    "latitude": 3.3285,
    "longitude": 99.1625,
    "rain_mm": 106.3,
    "humidity": 97.5,
    "soil_moisture": 0.0,
    "raw_dynamic_score": 9.002,
    "last_updated": "2025-11-26T19:24:19.970841Z"
  },
  "3.5765,98.6151": {
    "country": "",
    "name": "Sunggal",
    "risk_level": "Medium",
    "latitude": 3.5765,
    "longitude": 98.6151,
    "rain_mm": 70.6,
    "humidity": 95.7,
    "soil_moisture": 0.0,
    "raw_dynamic_score": 5.974,
    "last_updated": "2025-11-26T19:24:50.193444Z"
  },
  "3.6253,98.8640": {
    "country": "",
    "name": "Percut",
    "risk_level": "High",
    "latitude": 3.6253,
    "longitude": 98.864,
    "rain_mm": 230.7,
    "humidity": 96.8,
    "soil_moisture": 0.0,
    "raw_dynamic_score": 19.531,
    "last_updated": "2025-11-26T19:25:20.398068Z"
  },
  "3.5679,98.9560": {
    "country": "",
    "name": "Perbaungan",
    "risk_level": "Medium",
    "latitude": 3.5679,
    "longitude": 98.956,
    "rain_mm": 148.9,
    "humidity": 96.7,
    "soil_moisture": 0.0,
    "raw_dynamic_score": 12.605,
    "last_updated": "2025-11-26T19:25:50.595732Z"
  },
  "3.5833,98.6667": {
    "country": "",
    "name": "Medan",
    "risk_level": "Medium",
    "latitude": 3.58333,
    "longitude": 98.66667,
    "rain_mm": 70.6,
    "humidity": 95.7,
    "soil_moisture": 0.0,
    "raw_dynamic_score": 5.974,
    "last_updated": "2025-11-26T19:26:20.798085Z"
  },
  "7.4698,80.6217": {
    "country": "",
    "name": "Matale",
    "risk_level": "Medium",
    "latitude": 7.4698,
    "longitude": 80.6217,
    "rain_mm": 79.3,
    "humidity": 96.8,
    "soil_moisture": 0.0,
    "raw_dynamic_score": 6.714,
    "last_updated": "2025-11-27T04:16:29.181423Z"
  },
  "8.7514,80.4971": {
    "country": "",
    "name": "Vavuniya",
    "risk_level": "Medium",
    "latitude": 8.7514,
    "longitude": 80.4971,
    "rain_mm": 84.2,
    "humidity": 96.0,
    "soil_moisture": 0.0,
    "raw_dynamic_score": 7.126,
    "last_updated": "2025-11-28T10:17:48.252537Z"
  },
  "9.8167,80.1667": {
    "country": "",
    "name": "Valvedditturai",
    "risk_level": "Medium",
    "latitude": 9.81667,
    "longitude": 80.16667,
    "rain_mm": 67.4,
    "humidity": 92.8,
    "soil_moisture": 0.0,
    "raw_dynamic_score": 5.695,
    "last_updated": "2025-11-28T10:18:18.486231Z"
  },
  "8.0362,79.8283": {
    "country": "",
    "name": "Puttalam",
    "risk_level": "Medium",
    "latitude": 8.0362,
    "longitude": 79.8283,
    "rain_mm": 68.7,
    "humidity": 91.2,
    "soil_moisture": 0.0,
    "raw_dynamic_score": 5.8,
    "last_updated": "2025-11-28T10:19:49.261029Z"
  },
  "9.6684,80.0074": {
    "country": "",
    "name": "Jaffna",
    "risk_level": "Medium",
    "latitude": 9.66845,
    "longitude": 80.00742,
    "rain_mm": 67.4,
    "humidity": 92.8,
    "soil_moisture": 0.0,
    "raw_dynamic_score": 5.695,
    "last_updated": "2025-11-28T10:21:20.038864Z"
  }
}