{
  "3.3285,99.1625": {
    "country": "",
    "name": "Tebingtinggi",
    "risk_level": "Medium",
    "latitude": 3.3285,
    "longitude": 99.1625,
    "rain_mm": 106.3,
    "humidity": 97.5,
    "soil_moisture": 0.0,
    "raw_dynamic_score": 9.002,
    "last_updated": "2025-11-26T19:24:19.970841Z"
  },
  "3.5765,98.6151": {
    "country": "",
    "name": "Sunggal",
    "risk_level": "Medium",
    "latitude": 3.5765,
    "longitude": 98.6151,
    "rain_mm": 70.6,
    "humidity": 95.7,
    "soil_moisture": 0.0,
    "raw_dynamic_score": 5.974,
    "last_updated": "2025-11-26T19:24:50.193444Z"
  },
  "3.6253,98.8640": {
    "country": "",
    "name": "Percut",
    "risk_level": "High",
    "latitude": 3.6253,
    "longitude": 98.864,
    "rain_mm": 230.7,
    "humidity": 96.8,
    "soil_moisture": 0.0,
    "raw_dynamic_score": 19.531,
    "last_updated": "2025-11-26T19:25:20.398068Z"
  },
  "3.5679,98.9560": {
    "country": "",
    "name": "Perbaungan",
    "risk_level": "Medium",
    "latitude": 3.5679,
    "longitude": 98.956,
    "rain_mm": 148.9,
    "humidity": 96.7,
    "soil_moisture": 0.0,
    "raw_dynamic_score": 12.605,
    "last_updated": "2025-11-26T19:25:50.595732Z"
  },
  "3.5833,98.6667": {
    "country": "",
    "name": "Medan",
    "risk_level": "Medium",
    "latitude": 3.58333,
    "longitude": 98.66667,
    "rain_mm": 70.6,
    "humidity": 95.7,
    "soil_moisture": 0.0,
    "raw_dynamic_score": 5.974,
    "last_updated": "2025-11-26T19:26:20.798085Z"
  },
  "3.5078,98.6839": {
    "country": "",
    "name": "Deli Tua",
    "risk_level": "Low",
    "latitude": 3.5078,
    "longitude": 98.6839,
    "rain_mm": 8.5,
    "humidity": 95.5,
    "soil_moisture": 0.0,
    "raw_dynamic_score": 0.719,
    "last_updated": "2025-11-27T14:26:01.003901Z",
    "resolved": true
  },
  "3.6001,98.4854": {
    "country": "",
    "name": "Binjai",
    "risk_level": "Low",
    "latitude": 3.6001,
    "longitude": 98.4854,
    "rain_mm": 7.2,
    "humidity": 96.7,
    "soil_moisture": 0.0,
    "raw_dynamic_score": 0.61,
    "last_updated": "2025-11-27T14:26:31.176864Z",
    "resolved": true
  },
  "6.9708,80.7829": {
    "country": "",
    "name": "Nuwara Eliya",
    "risk_level": "Medium",
    "latitude": 6.97078,
    "longitude": 80.78286,
    "rain_mm": 65.1,
    "humidity": 95.8,
    "soil_moisture": 0.0,
    "raw_dynamic_score": 5.509,
    "last_updated": "2025-11-27T04:15:58.950130Z"
  },
  "7.4698,80.6217": {
    "country": "",
    "name": "Matale",
    "risk_level": "Medium",
    "latitude": 7.4698,
    "longitude": 80.6217,
    "rain_mm": 79.3,
    "humidity": 96.8,
    "soil_moisture": 0.0,
    "raw_dynamic_score": 6.714,
    "last_updated": "2025-11-27T04:16:29.181423Z"
  },
  "6.9802,81.0577": {
    "country": "",
    "name": "Badulla",
    "risk_level": "Medium",
    "latitude": 6.9802,
    "longitude": 81.0577,
    "rain_mm": 108.2,
    "humidity": 97.2,
    "soil_moisture": 0.0,
    "raw_dynamic_score": 9.162,
    "last_updated": "2025-11-27T04:16:59.429955Z"
  },
  "8.1333,81.4333": {
    "country": "",
    "name": "Vakarai",
    "risk_level": "Medium",
    "latitude": 8.13333,
    "longitude": 81.43333,
    "rain_mm": 62.2,
    "humidity": 94.3,
    "soil_moisture": 0.0,
    "raw_dynamic_score": 5.26,
    "last_updated": "2025-11-27T10:18:42.686087Z"
  },
  "6.6858,80.4036": {
    "country": "",
    "name": "Ratnapura",
    "risk_level": "Medium",
    "latitude": 6.6858,
    "longitude": 80.4036,
    "rain_mm": 82.0,
    "humidity": 93.0,
    "soil_moisture": 0.0,
    "raw_dynamic_score": 6.929,
    "last_updated": "2025-11-27T10:19:12.888117Z"
  },
  "7.2906,80.6336": {
    "country": "",
    "name": "Kandy",
    "risk_level": "Medium",
    "latitude": 7.2906,
    "longitude": 80.6336,
    "rain_mm": 86.7,
    "humidity": 95.8,
    "soil_moisture": 0.0,
    "raw_dynamic_score": 7.336,
    "last_updated": "2025-11-27T10:19:43.096972Z"
  },
  "6.8916,80.5955": {
    "country": "",
    "name": "Hatton",
    "risk_level": "Medium",
    "latitude": 6.8916,
    "longitude": 80.5955,
    "rain_mm": 85.4,
    "humidity": 98.0,
    "soil_moisture": 0.0,
    "raw_dynamic_score": 7.234,
    "last_updated": "2025-11-27T10:20:13.285573Z"
  },
  "7.1643,80.5696": {
    "country": "",
    "name": "Gampola",
    "risk_level": "Medium",
    "latitude": 7.1643,
    "longitude": 80.5696,
    "rain_mm": 86.7,
    "humidity": 95.8,
    "soil_moisture": 0.0,
    "raw_dynamic_score": 7.336,
    "last_updated": "2025-11-27T10:20:43.468147Z"
  },
  "2.7297,101.9381": {
    "country": "",
    "name": "Seremban",
    "risk_level": "Medium",
    "latitude": 2.7297,
    "longitude": 101.9381,
    "rain_mm": 76.2,
    "humidity": 92.7,
    "soil_moisture": 0.0,
    "raw_dynamic_score": 6.438,
    "last_updated": "2025-11-27T10:21:43.928563Z"
  },
  "2.6910,101.9890": {
    "country": "",
    "name": "Taman Senawang Indah",
    "risk_level": "Medium",
    "latitude": 2.691,
    "longitude": 101.989,
    "rain_mm": 76.2,
    "humidity": 92.7,
    "soil_moisture": 0.0,
    "raw_dynamic_score": 6.438,
    "last_updated": "2025-11-27T10:22:14.118424Z"
  },
  "2.7389,102.2487": {
    "country": "",
    "name": "Kuala Pilah",
    "risk_level": "Medium",
    "latitude": 2.7389,
    "longitude": 102.2487,
    "rain_mm": 64.1,
    "humidity": 93.7,
    "soil_moisture": 0.0,
    "raw_dynamic_score": 5.418,
    "last_updated": "2025-11-27T10:22:44.303731Z"
  }
}